"stop_id","stop_code","stop_name","stop_lat","stop_lon","zone_id","stop_url","location_type","parent_station","municipality_id","stop_desc","stop_timezone","wheelchair_boarding","platform_code","vehicle_type"
"1","","Linkkikeskus","62.2408407326719","25.747789144077156","1","","1","","179","","Europe/Helsinki","1","","3"
"3","","Äänekoski","62.602202583785754","25.726115187702543","3","","1","","992","","","1","","3"
"16727/1/3906","","Nokintie th","62.341311280919655","26.029637721553602","2","","0","","410","","","0","","3"
"90170","","Syrjälä E","62.0823357219143","26.0331561991928","3","","0","","850","","","0","",""
"90171","","Syrjälä P","62.0830187602621","26.0326362312999","3","","0","","850","","","0","",""
"90172","","Pohjoonlahti E","62.0861734044631","26.0306909520319","3","","0","","850","","","0","",""
"90173","","Pohjoonlahti P","62.0868987230442","26.0305926318706","3","","0","","850","","","0","",""
"90174","","Kaarre E","62.091768011812","26.0300590154598","3","","0","","850","","","0","",""
"90175","","Kaarre P","62.092474430342","26.0293618393754","3","","0","","850","","","0","",""
"90176","","Norolantie E","62.0970617712611","26.0207457324769","3","","0","","850","","","0","",""
"90177","","Norolantie P","62.0975399934645","26.0197402977478","3","","0","","850","","","0","",""
"90178","","Kuorekallio E","62.1021782885951","26.0099790401325","3","","0","","850","","","0","",""
"90179","","Kuorekallio P","62.1027037072033","26.0088813013783","3","","0","","850","","","0","",""
"90180","","Kiviriihi E","62.1075906571542","26.0008858538404","3","","0","","850","","","0","",""
"90181","","Kiviriihi P","62.1081244114479","26.0000783162726","3","","0","","850","","","0","",""
"90182","","Majalahti E","62.1103068001253","25.9969347192024","3","","0","","850","","","0","",""
"90183","","Majalahti P","62.1110675543625","25.9961342175876","3","","0","","850","","","0","",""
"90186","","Syvälahti I","62.1276387488886","25.9567258871532","3","","0","","850","","","0","",""
"90187","","Syvälahti L","62.1276778585629","25.9557551685269","3","","0","","850","","","0","",""
"90188","","Korpelantie I","62.1329971828067","25.9223925881343","2","","0","","179","","","0","",""
"90189","","Korpelantie P","62.1334948275616","25.9212623481239","2","","0","","179","","","0","",""
"90190","","Kaukaanlahti P","62.1389564492269","25.913275366778","2","","0","","179","","","0","",""
"90191","","Kaukaanlahti E","62.1393416441741","25.9127031594022","2","","0","","179","","","0","",""
"90192","","Multamäki P","62.1475760428133","25.906766208281","2","","0","","179","","","0","",""
"90193","","Multamäki E","62.1483883833521","25.9070535944499","2","","0","","179","","","0","",""
"90194","","Haukanmaa E","62.151917219221254","25.91009582320134","2","","0","","179","","","0","",""
"90195","","Haukanmaa P","62.15286089544302","25.91110185130942","2","","0","","179","","","0","",""
"90196","","Harjulantie E","62.15626652398323","25.914114753046185","2","","0","","179","","","0","",""
"90197","","Harjulantie P","62.15672677279808","25.914725493842116","2","","0","","179","","","0","",""
"90198","","Oravasaari E","62.1636949882962","25.9190393739221","2","","0","","179","","","0","",""
"90199","","Oravasaari P","62.164342559616","25.9196511444631","2","","0","","179","","","0","",""
"90200","","Aijasaho E","62.17002240622379","25.920379828546686","2","","0","","179","","","0","",""
"90201","","Aijasaho P","62.17073361521003","25.920283108425846","2","","0","","179","","","0","",""
"90202","","Pölönen E","62.1801186201348","25.915321788309","2","","0","","179","","","0","",""
"90203","","Pölönen P","62.1804628929807","25.9151823762671","2","","0","","179","","","0","",""
"90204","","Kotalahti E","62.1858482785727","25.9143601730605","2","","0","","179","","","0","",""
"90205","","Kotaniemi P","62.18857151968","25.9122330778809","2","","0","","179","","","0","",""
"90206","","Jääskelä E","62.1931970432957","25.9043037860112","2","","0","","179","","","0","",""
"90207","","Jääskelä P","62.1938939508832","25.9040017657436","2","","0","","179","","","0","",""
"90208","","Tura th P","62.1970649055031","25.9017927945478","2","","0","","179","","","0","",""
"90209","","Tura th E","62.1971930313522","25.9016989953003","2","","0","","179","","","0","",""
"90210","","Mäntylahti E","62.2041755598091","25.9010472667172","2","","0","","179","","","0","",""
"90211","","Mäntylahti P","62.2047186562397","25.9013147419252","2","","0","","179","","","0","",""
"90212","","Hokkatuomas P","62.20810870097084","25.904006885288815","2","","0","","179","","","0","",""
"90213","","Hokkatuomas E","62.208186816062195","25.90393734868434","2","","0","","179","","","0","",""
"90214","","Jussilanmutka P","62.2147839364137","25.9049069986157","2","","0","","179","","","0","",""
"90215","","Jussilanmutka E","62.2155960156823","25.9040815702339","2","","0","","179","","","0","",""
"90216","","Jussila P","62.2194524365955","25.9029089575174","2","","0","","179","","","0","",""
"90217","","Jussila E","62.2195436981206","25.9029207693218","2","","0","","179","","","0","",""
"90218","","Kairahta E","62.2230129525999","25.9030615079855","2","","0","","179","","","0","",""
"90219","","Kairahta P","62.2237686782171","25.9029057380518","2","","0","","179","","","0","",""
"90220","","Kanavuori P","62.2266430421936","25.9021834427461","2","","0","","179","","","0","",""
"90221","","Kanavuori E","62.2273538622756","25.9018691726202","2","","0","","179","","","0","",""
"90222","","Laurinniemi th E","62.2313272227823","25.8992943264182","1","","0","","179","","","0","",""
"90223","","Laurinniemi th P","62.2322498566842","25.8986982333844","1","","0","","179","","","0","",""
"90224","","Hupeli E","62.2395275231944","25.8917604741275","1","","0","","179","","","0","",""
"90225","","Hupeli P","62.240218379204","25.8912044028727","1","","0","","179","","","0","",""
"90226","","Siperianpolku E","62.2431879723833","25.887944490646085","1","","0","","179","","","0","",""
"90227","","Siperianpolku P","62.243551979005076","25.887441893562603","1","","0","","179","","","0","",""
"90228","","Konttisentie L","62.2452370115104","25.8772224130414","1","","0","","179","","","0","",""
"90229","","Konttisentie I","62.2449542802113","25.8784941728256","1","","0","","179","","","0","",""
"90266","","Vehniä koulu nelostie E","62.4410090122376","25.684103006945","2","","0","","410","","","0","",""
"90267","","Vehniä koulu nelostie P","62.441664736208","25.6835718586078","2","","0","","410","","","0","",""
"90268","","Jokihaara th E","62.4477462543215","25.6785328654023","2","","0","","410","","","0","",""
"90269","","Jokihaara th P","62.4487262505711","25.6777385709975","2","","0","","410","","","0","",""
"90270","","Uusi-Paavola E","62.4573454250154","25.6718098077785","2","","0","","410","","","0","",""
"90271","","Uusi-Paavola P","62.4582774650926","25.6716720714435","2","","0","","410","","","0","",""
"90272","","Rantala E","62.462587546689","25.6710211336395","2","","0","","410","","","0","",""
"90273","","Rantala P","62.4642803919797","25.6707517143726","2","","0","","410","","","0","",""
"90274","","Paananen E","62.4759407195814","25.6723757747507","2","","0","","410","","","0","",""
"90275","","Paananen P","62.4769218301017","25.6727443714811","2","","0","","410","","","0","",""
"90276","","Hovila E","62.48593147857027","25.676367564554887","2","","0","","410","","","0","",""
"90277","","Hovila P","62.4869041118981","25.67699503650712","2","","0","","410","","","0","",""
"90278","","Markunranta E","62.4990887255432","25.68295159291852","3","","0","","892","","","0","","3"
"90279","","Markunranta P","62.49997564539731","25.68356460079711","3","","0","","892","","","0","","3"
"90280","","Hirvasen Koulu E","62.50486007571743","25.685750953166348","3","","0","","892","","","0","","3"
"90281","","Hirvasen koulu P","62.50643623073003","25.686484350890208","3","","0","","892","","","0","","3"
"90306","","Mämmenkylä E","62.64531407446367","25.707807770664022","3","","0","","992","","","0","",""
"90307","","Mämmenkylä P","62.646495162948725","25.709957540707236","3","","0","","992","","","0","",""
"90308","","Karvalahti E","62.6547618193652","25.72356566708938","3","","0","","992","","","0","",""
"90309","","Karvalahti P","62.655694716647524","25.725072753637477","3","","0","","992","","","0","",""
"90318","","Häkkiläntie P","62.74595960191264","25.773478179415267","3","","0","","992","","","0","",""
"90319","","Polunharjuntie E","62.74832228106303","25.774148561626813","3","","0","","992","","","0","",""
"90320","","Polunharjuntie P","62.74959063253947","25.774535372999367","3","","0","","992","","","0","",""
"90321","","Konginkangas th E","62.76748989910282","25.77953658439619","3","","0","","992","","","0","",""
"90326","","Rajakorpi P","62.80396826168056","25.807502156946775","3","","0","","992","","","0","",""
"90327","","Lekosaari E","62.808850927508594","25.806891737317134","3","","0","","992","","","0","",""
"90329","","Murontie E","62.81771998815278","25.802748512991066","3","","0","","992","","","0","",""
"90330","","Murontie P","62.81910248922743","25.802711327369398","3","","0","","992","","","0","",""
"90331","","Maso E","62.82730223339984","25.812594770142265","3","","0","","992","","","0","",""
"90332","","Maso P","62.82836072158053","25.813574375826445","3","","0","","992","","","0","",""
"90333","","Riita-ahontie E","62.849270941120444","25.813212372713288","3","","0","","992","","","0","",""
"90334","","Riita-ahontie P","62.85023001149082","25.813081973914105","3","","0","","992","","","0","",""
"90335","","Kalaniemi E nelostie","62.86736919916146","25.81071144751618","3","","0","","992","","","0","",""
"90506","","Perälänraitti E","61.9556933685758","25.3666653747545","3","","0","","179","","","0","",""
"90507","","Perälänraitti P","61.95644378177565","25.367578852325867","3","","0","","179","","","0","","3"
"90508","","Peltola E (Korpilahti)","61.9647829456464","25.3774935844054","3","","0","","179","","","0","",""
"90509","","Peltola P (Korpilahti)","61.96535556999427","25.37853970498651","3","","0","","179","","","0","","3"
"90510","","Saakoski E","61.9706891268488","25.3879552827411","3","","0","","179","","","0","",""
"90511","","Saakoski P","61.971691510017536","25.390034852826684","3","","0","","179","","","0","","3"
"90512","","Saarentie E","61.9772411934258","25.4003870861073","3","","0","","179","","","0","",""
"90513","","Saarentie P","61.9781395339834","25.4020862217081","3","","0","","179","","","0","",""
"90514","","Saalahdentie E","61.9865742084367","25.4189403255491","3","","0","","179","","","0","",""
"90515","","Saalahdentie P","61.987342126917525","25.420788593070547","3","","0","","179","","","0","","3"
"90516","","Kuusimäki E","61.9912239519774","25.4370559524888","3","","0","","179","","","0","",""
"90517","","Kuusimäki I","61.99129297293848","25.438656975432554","3","","0","","179","","","0","","3"
"90518","","Painaantie L","61.9919505723588","25.4492302296691","3","","0","","179","","","0","",""
"90519","","Painaantie I","61.991931980012254","25.451454211215403","3","","0","","179","","","0","","3"
"90520","","Painaa L","61.9924492300685","25.4672478835638","3","","0","","179","","","0","","3"
"90521","","Painaa I","61.9928262479346","25.469756015260565","3","","0","","179","","","0","","3"
"90522","","Rimminjärvi L","61.9987543378676","25.4961891827646","2","","0","","179","","","0","",""
"90523","","Rimminjärvi I","61.99849950298935","25.495368773172526","2","","0","","179","","","0","","3"
"90524","","Lautakontie L","62.0026137819551","25.5220973034681","2","","0","","179","","","0","",""
"90525","","Lautakontie I","62.00297488554148","25.52380863230651","2","","0","","179","","","0","","3"
"90526","","Reivilä L","62.0089157890209","25.5380757341565","2","","0","","179","","","0","",""
"90527","","Reivilä I","62.009658293802175","25.539404082007792","2","","0","","179","","","0","","3"
"90530","","Petäjävesi th I","62.0217560725662","25.5734887727782","2","","0","","179","","","0","",""
"90531","","Sammalniemi th L","62.0274647050235","25.5918213495865","2","","0","","179","","","0","",""
"90532","","Sammalniemi th P","62.028183878575","25.5935545773841","2","","0","","179","","","0","",""
"90533","","Joutsa th E","62.0317854021647","25.6003340029858","2","","0","","179","","","0","",""
"90534","","Joutsa th P","62.03315144490324","25.602025231418708","2","","0","","179","","","0","","3"
"90535","","Maatiajärvi E","62.0373730196955","25.6056674651794","2","","0","","179","","","0","",""
"90536","","Maatiajärvi P","62.038226905977325","25.60632013282391","2","","0","","179","","","0","","3"
"90537","","Punamäentie E","62.045255239345","25.6057266520739","2","","0","","179","","","0","",""
"90538","","Punamäentie P","62.04640319186839","25.605227322636797","2","","0","","179","","","0","","3"
"90539","","Mäntylänpolku E","62.0532119290203","25.6012833304902","2","","0","","179","","","0","",""
"90540","","Mäntylänpolku P","62.05413994182868","25.600895078105083","2","","0","","179","","","0","","3"
"90541","","Punamäki th E","62.061245461969236","25.59751062743607","2","","0","","179","","","0","","3"
"90559","","Autotalo Muurame E","62.14747847879411","25.67443897063571","2","","0","","500","","","0","",""
"90560","","Autotalo Muurame P","62.14902883837004","25.67499530599951","2","","0","","500","","","0","",""
"90561","","Oksalanmäentie E 9-tie","62.1576750089898","25.6763074617476","2","","0","","500","","","0","",""
"90562","","Oksalanmäentie P 9-tie","62.1595138960966","25.6778248339747","2","","0","","500","","","0","",""
"90563","","Syrjälä 9-tie P","62.1626011513555","25.6811336588859","2","","0","","500","","","0","",""
"90564","","Syrjälä 9-tie E","62.1631275760364","25.6815206361383","2","","0","","500","","","0","",""
"90573","","Kuopiontie 369 L","62.2364772540264","25.9650874764144","2","","0","","179","","","0","",""
"90574","","Leppälahden th I","62.2367028082364","25.9680691726272","2","","0","","179","","","0","",""
"90575","","Leppälahden th L","62.2372197492708","25.9720518909903","2","","0","","179","","","0","",""
"90576","","Lepäsmutka L","62.239805012289","25.9805970119955","2","","0","","179","","","0","",""
"90577","","Lepäsmutka I","62.2406800167617","25.9821972873399","2","","0","","179","","","0","",""
"90578","","Mehtoniementie L","62.2450615489151","25.9948305995524","2","","0","","179","","","0","",""
"90579","","Mehtoniementie I","62.2452683839308","25.9976519161519","2","","0","","179","","","0","",""
"90580","","Antinrinne L","62.248566978539074","26.02197775251561","2","","0","","179","","","0","",""
"90581","","Antinrinne I","62.24840564478138","26.02478489721432","2","","0","","179","","","0","",""
"90582","","Pommiovuorentie L","62.2462274591214","26.0374219794503","2","","0","","179","","","0","",""
"90583","","Pommiovuorentie I","62.2460123764468","26.0395527358398","2","","0","","179","","","0","",""
"90584","","Talvimäen th L","62.2531620273822","26.068443143019","2","","0","","410","","","0","",""
"90585","","Matinniemen th I","62.2534452681524","26.0705979518605","2","","0","","410","","","0","",""
"90586","","Metsolahti th L","62.2528262827387","26.0987101344678","2","","0","","410","","","0","",""
"90587","","Metsolahti th I","62.2528016940938","26.1017250953357","2","","0","","410","","","0","",""
"90588","","Lipeälampi L","62.2507701778724","26.1223452105261","2","","0","","410","","","0","",""
"90589","","Lipeälampi I","62.2504836460099","26.1238354491245","2","","0","","410","","","0","",""
"90590","","Laukaanhovi L","62.24730917664013","26.1328233689135","2","","0","","410","","","0","",""
"90596","","Hohontie I","62.251751192788454","26.21470657272939","2","","0","","410","","","0","",""
"90598","","Taipale I","62.2523455274804","26.2398739503347","2","","0","","410","","","0","",""
"90599","","Kuopiontie 2009 L","62.2541806196076","26.2588504582438","2","","0","","410","","","0","",""
"90600","","Kuopiontie 2020 I","62.2548300896136","26.2611257540808","2","","0","","410","","","0","",""
"90601","","Puhakan th L","62.2563721729665","26.2658440172044","2","","0","","410","","","0","",""
"90602","","Puhakan th I","62.2573283609657","26.2701340393941","2","","0","","410","","","0","",""
"90603","","Pajula L","62.2568109052038","26.2933107626297","2","","0","","410","","","0","",""
"90604","","Pajula I","62.2569132785582","26.2957923124166","2","","0","","410","","","0","",""
"90605","","Niittylä L","62.2592280407484","26.310071867265233","3","","0","","77","","","0","",""
"90606","","Niittylä I","62.2597581469949","26.312163785706172","3","","0","","77","","","0","",""
"90607","","Rämyntie L","62.262727720161564","26.320572498509268","3","","0","","77","","","0","",""
"90608","","Rämyntie P","62.26379691705656","26.322471654972958","3","","0","","77","","","0","",""
"90609","","Väinöntie E","62.267261761041134","26.325927385890523","3","","0","","77","","","0","",""
"90610","","Väinöntie P","62.268478248527835","26.326487394036487","3","","0","","77","","","0","",""
"90611","","Vuokonmaa E","62.2795056619278","26.337052267951474","3","","0","","77","","","0","",""
"90612","","Vuokonmaa P","62.280451817551466","26.33863065159495","3","","0","","77","","","0","",""
"90613","","Niemisjärvi th E","62.28395745902315","26.345036324069937","3","","0","","77","","","0","",""
"90615","","Tuomiojantie L","62.29017771917006","26.36835408281876","3","","0","","77","","","0","",""
"90616","","Tuomiojantie I","62.29032063730704","26.37055040564067","3","","0","","77","","","0","",""
"90617","","Ahokkaantie L","62.290451522860224","26.37706035768443","3","","0","","77","","","0","",""
"90618","","Ahokkaantie I","62.29040602543132","26.37942184708714","3","","0","","77","","","0","",""
"90619","","Tuomaalantie L","62.290012866535626","26.390400147533203","3","","0","","77","","","0","",""
"90620","","Tuomaalantie I","62.28992616951834","26.392831300537164","3","","0","","77","","","0","",""
"90621","","Kovalanmäentie L","62.29140678253293","26.411723078196026","3","","0","","77","","","0","",""
"90622","","Kovalanmäentie I","62.291877415576224","26.41440023308516","3","","0","","77","","","0","",""
"90623","","Multainen I","62.29304695734506","26.426952592312603","3","","0","","77","","","0","",""
"90624","","Multainen L","62.293086724074854","26.428273159784855","3","","0","","77","","","0","",""
"90625","","Talvelantie L","62.293822878679364","26.43848257428422","3","","0","","77","","","0","",""
"90626","","Talvelantie I","62.29439075232179","26.440639173107208","3","","0","","77","","","0","",""
"90627","","Nujulanlenkki L","62.298567791949175","26.4524690742736","3","","0","","77","","","0","",""
"90803","","Summakoskentie E","62.65426141508611","25.485270713616934","3","","0","","992","","","0","",""
"90804","","Summakoskentie P","62.65391662624847","25.48626867542693","3","","0","","992","","","0","",""
"90805","","Naurismäki E","62.64967042589341","25.492014119034245","3","","0","","992","","","0","",""
"90806","","Naurismäki P","62.64903688429738","25.492481709315303","3","","0","","992","","","0","",""
"90807","","Saviniementie P","62.6454307208549","25.495215661198056","3","","0","","992","","","0","",""
"90808","","Saviniementie E","62.64436167270019","25.496725320511622","3","","0","","992","","","0","",""
"90809","","Myllylahti P","62.643131186082","25.50054404362375","3","","0","","992","","","0","",""
"90811","","Hammarenintie P","62.642559499292155","25.507553332761013","3","","0","","992","","","0","",""
"90812","","Parantala P","62.64118721754343","25.51289863843604","3","","0","","992","","","0","",""
"90814","","Ahvenlampi E","62.63609892290146","25.520149503618143","3","","0","","992","","","0","",""
"90815","","Ahvenlampi P","62.635534224047454","25.521100048618436","3","","0","","992","","","0","",""
"90816","","Upatonpohjantie E","62.63203332661779","25.527364183842117","3","","0","","992","","","0","",""
"90817","","Upatonpohjantie P","62.63121991453697","25.52883811206664","3","","0","","992","","","0","",""
"90818","","Notkola P","62.62836220729326","25.5337347535507","3","","0","","992","","","0","",""
"90819","","Notkola E","62.62754502060454","25.53508137905155","3","","0","","992","","","0","",""
"90820","","Sarjantie P","62.61781397126847","25.55105286804097","3","","0","","992","","","0","",""
"90821","","Sarjantie E","62.617265192838275","25.55153795110094","3","","0","","992","","","0","",""
"90822","","Saarijärventie 800 E","62.61522900592942","25.554858599424648","3","","0","","992","","","0","",""
"90823","","Saarijärventie 800 P","62.61480661430562","25.55582875047591","3","","0","","992","","","0","",""
"90824","","Ukonlahti P","62.61179103710235","25.56276789874096","3","","0","","992","","","0","",""
"90825","","Ukonlahti E","62.6109228095558","25.564272882700646","3","","0","","992","","","0","",""
"90826","","Hietama P","62.606436228188834","25.570995697054073","3","","0","","992","","","0","",""
"90827","","Hietama E","62.6052340834073","25.572798438163673","3","","0","","992","","","0","",""
"90828","","Rantahaantie P","62.598124685159526","25.583641349319375","3","","0","","992","","","0","",""
"90829","","Rantahaantie E","62.59749588718637","25.584884741285194","3","","0","","992","","","0","",""
"90830","","Möttölänharju P","62.59309868981966","25.59641273985755","3","","0","","992","","","0","",""
"90831","","Möttölänharju E","62.592376174480094","25.598353651080483","3","","0","","992","","","0","",""
"90832","","Hietama hautausmaa E","62.59028711652125","25.603925693692666","3","","0","","992","","","0","",""
"90833","","Hietama hautausmaa P","62.589947959090395","25.604867720249818","3","","0","","992","","","0","",""
"90834","","Kolunpohjantie P","62.58309106890737","25.62202010561268","3","","0","","992","","","0","",""
"90835","","Kolunpohjantie E","62.58217257709895","25.62389649147871","3","","0","","992","","","0","",""
"90836","","Eevala P","62.57747815802908","25.635184231694872","3","","0","","992","","","0","",""
"90837","","Eevala E","62.576971607425804","25.637274356238354","3","","0","","992","","","0","",""
"90838","","Päivärinteentie P","62.573508092764904","25.651283390002185","3","","0","","992","","","0","",""
"90839","","Päivärinteentie E","62.57315717093081","25.652667032768417","3","","0","","992","","","0","",""
"90843","","Kangasniementie 434 P","62.21568907523093","26.207763838549894","3","","0","","850","","","0","","3"
"90845","","Reivintie P","62.20749478825354","26.21086702490721","3","","0","","850","","","0","","3"
"90846","","Reivintie E","62.20681431569287","26.21104479113329","3","","0","","850","","","0","",""
"90847","","Ruuhimäki th P","62.20341127012245","26.21248470016268","3","","0","","850","","","0","",""
"90848","","Ruuhimäki th E","62.20304102951757","26.21272073455626","3","","0","","850","","","0","",""
"90849","","Hännilä P","62.20026908406157","26.21475921340677","3","","0","","850","","","0","",""
"90850","","Hännilä E","62.19985867923353","26.2151550734596","3","","0","","850","","","0","",""
"90851","","Uusitie th P","62.19808727883762","26.216903873738325","3","","0","","850","","","0","",""
"90852","","Uusitie th E","62.19647598641036","26.218857689551538","3","","0","","850","","","0","",""
"90853","","Saarela L","62.18453320105483","26.254155560188078","3","","0","","850","","","0","",""
"90854","","Saarela I","62.1842628570779","26.254949494056106","3","","0","","850","","","0","",""
"90855","","Taulu th P","62.17629323033905","26.270720921656366","3","","0","","850","","","0","",""
"90974","","Imatran Voiman tie P","62.25849161115041","25.19523624573684","3","","0","","592","","","0","",""
"90975","","Halkokangas L","62.261280034447395","25.207443577546094","3","","0","","592","","","0","",""
"90976","","Halkokangas I","62.261338752212154","25.20941351551357","3","","0","","592","","","0","",""
"90977","","Tiilimaantie L","62.26082169859518","25.23319548266843","3","","0","","592","","","0","",""
"90978","","Tiilimaantie I","62.26101637433614","25.23477056847342","3","","0","","592","","","0","",""
"90979","","Palvalahti L","62.26054627312884","25.24413875683529","3","","0","","592","","","0","",""
"90980","","Palvalahti I","62.26049942062522","25.24636212011512","3","","0","","592","","","0","",""
"90981","","Oiniemi L","62.26064613918537","25.262694903085016","3","","0","","592","","","0","",""
"90982","","Oiniemi I","62.260832567519415","25.265564130370343","3","","0","","592","","","0","",""
"90983","","Oiniementie L","62.26177371098354","25.271889214002286","3","","0","","592","","","0","",""
"90984","","Oiniementie I","62.26223597688437","25.273895527821686","3","","0","","592","","","0","",""
"90985","","Kannulanperä L","62.264621366404796","25.28067914788642","3","","0","","592","","","0","",""
"90986","","Kannulanperä I","62.26548857037095","25.282600760605554","3","","0","","592","","","0","",""
"90987","","Koskensaaren tehtaat L","62.268669335788495","25.295052498772286","3","","0","","592","","","0","",""
"90988","","Koskensaaren tehtaat I","62.268940414385334","25.297622763599886","3","","0","","592","","","0","",""
"90989","","Koskensaari L","62.27064144594749","25.308695055302184","3","","0","","592","","","0","",""
"90990","","Koskensaari I","62.271013714337485","25.31120311933068","3","","0","","592","","","0","",""
"90991","","Petäjävedentie 877 L","62.27148674441476","25.317263384367948","3","","0","","592","","","0","",""
"90992","","Petäjävedentie 882 I","62.27149772845566","25.319840169851236","3","","0","","592","","","0","",""
"90993","","Kivilinnantie L","62.27125910457442","25.324695164347094","3","","0","","592","","","0","",""
"90994","","Kivilinnantie I","62.27099188767289","25.327327958320314","3","","0","","592","","","0","",""
"90995","","Kintaus L","62.27046436143748","25.338977905299185","3","","0","","592","","","0","",""
"90996","","Kintaus I","62.27070691267033","25.341127797502864","3","","0","","592","","","0","",""
"90997","","Pekkalanmäki L","62.272580016903866","25.34948993536494","3","","0","","592","","","0","",""
"90998","","Niemelä th L","62.2732812533307","25.36341743739248","3","","0","","592","","","0","",""
"90999","","Niemeläth I","62.272855884246816","25.366155075177932","3","","0","","592","","","0","",""
"91000","","Vehkasuo L","62.27161020847602","25.388262981769994","3","","0","","592","","","0","",""
"91001","","Vehkasuo I","62.2716825029886","25.391104063031932","3","","0","","592","","","0","",""
"91002","","Tallilantie L","62.271672202762716","25.412861815911366","3","","0","","592","","","0","",""
"91003","","Tallilantie I","62.271484939703186","25.41511223277133","3","","0","","592","","","0","",""
"91004","","Vehkasuontie L","62.26883214388224","25.4258260077607","2","","0","","179","","","0","",""
"91005","","Vehkasuontie I","62.26800838979037","25.427435333168575","2","","0","","179","","","0","",""
"91006","","Kuohu I","62.2658569878709","25.4495393755599","2","","0","","179","","","0","",""
"91007","","Kuohu L","62.2658337292413","25.4500936065384","2","","0","","179","","","0","",""
"91008","","Raiviokoskentie L","62.26556719808","25.4566724170583","2","","0","","179","","","0","",""
"91009","","Raiviokoskentie I","62.265452490852","25.4586500939375","2","","0","","179","","","0","",""
"91010","","Metsärannantie L","62.2643765164627","25.4753323211282","2","","0","","179","","","0","",""
"91011","","Metsärannantie I","62.2646162582249","25.4781143799801","2","","0","","179","","","0","",""
"91012","","Konnuntie L","62.2660472430013","25.4851782088951","2","","0","","179","","","0","",""
"91013","","Konnuntie I","62.2665468559279","25.4879022989606","2","","0","","179","","","0","",""
"91014","","Nuuttilantie L","62.2667792551009","25.4983134433347","2","","0","","179","","","0","",""
"91015","","Nuuttilantie I","62.2667562916296","25.5014134566055","2","","0","","179","","","0","",""
"91016","","Humalamäki L","62.2671630361675","25.5254135915405","2","","0","","179","","","0","",""
"91017","","Humalamäki I","62.2676636343978","25.5296930444327","2","","0","","179","","","0","",""
"91018","","Ala-Siekkiläntie L","62.26929377509067","25.5381589140418","2","","0","","179","","","0","",""
"91019","","Ala-Siekkiläntie I","62.2693487663422","25.539211723927846","2","","0","","179","","","0","",""
"91020","","Saukkolantie L","62.2672743568723","25.5563691688474","2","","0","","179","","","0","",""
"91021","","Saukkolantie I","62.2666188351033","25.5587181410086","2","","0","","179","","","0","",""
"91022","","Vesanka L","62.2650503193216","25.577256565427","2","","0","","179","","","0","",""
"91023","","Vesanka I","62.2648763120742","25.5800588214693","2","","0","","179","","","0","",""
"91024","","Möykynmäki L","62.2627170842198","25.5891183661537","2","","0","","179","","","0","",""
"91025","","Möykynmäki I","62.2622003189559","25.5907855910696","2","","0","","179","","","0","",""
"91026","","Ruokkeentie th L","62.2604747887141","25.5988084881194","1","","0","","179","","","0","",""
"91027","","Ruokkeentie th I","62.2601097284931","25.6014189086512","1","","0","","179","","","0","",""
"91028","","Lehtiniemi L","62.2559722391611","25.6211711376055","1","","0","","179","","","0","",""
"91030","","Mäyränpolku I","62.23502496675388","25.673776944659977","1","","0","","179","","","0","",""
"91032","","Tarhamäki L","62.22039864379141","25.71362587969458","1","","0","","179","","","0","","3"
"91121","","Kalliosaari I","62.240479302666614","25.07257364758976","3","","0","","592","","","0","",""
"91122","","Tervamäki L","62.245423824210185","25.10956201593787","3","","0","","592","","","0","",""
"91123","","Tervamäki I","62.24593533597437","25.1114234893843","3","","0","","592","","","0","",""
"91124","","Rautakylä L","62.25066891878153","25.14048565190554","3","","0","","592","","","0","",""
"91125","","Rautakylä I","62.25045711498945","25.142730051850585","3","","0","","592","","","0","",""
"91301","","Mäyränpolku L","62.235127003247335","25.674467142863936","1","","0","","179","","","0","",""
"91617","","Lahdentauksentie I","62.51998533658471","25.705293592692993","3","","0","","992","","","0","",""
"91618","","Lahdentauksentie L","62.52021188676631","25.706593055711124","3","","0","","992","","","0","",""
"91619","","Koivistonkyläntie L","62.52311633516623","25.719839860005926","3","","0","","992","","","0","",""
"91622","","Koivisto L","62.52845342095881","25.73602834749098","3","","0","","992","","","0","",""
"91623","","Lehtovuori L","62.52874708083162","25.757463439914382","3","","0","","992","","","0","",""
"91624","","Lehtovuori I","62.52876924029888","25.75986236422117","3","","0","","992","","","0","",""
"91625","","Valkolantie I","62.530002688476095","25.76866625954111","3","","0","","992","","","0","",""
"91626","","Valkolantie L","62.53119941427272","25.772926049836162","3","","0","","992","","","0","",""
"91627","","Loukeentie I","62.53454669095807","25.803729354836715","3","","0","","992","","","0","",""
"91628","","Loukeentie L","62.53467159499719","25.804742398432875","3","","0","","992","","","0","",""
"91629","","Kapeenlahti L","62.53535034999787","25.821987258016062","3","","0","","992","","","0","",""
"91630","","Kapeenlahti I","62.53558312807354","25.823574275537556","3","","0","","992","","","0","",""
"91631","","Pukkiaho L","62.5411780353839","25.8402863078887","3","","0","","410","","","0","",""
"91632","","Pukkiaho I","62.5416982619138","25.8416781642926","3","","0","","410","","","0","",""
"91633","","Kaura-aho L","62.54404686252584","25.85837078820151","3","","0","","992","","","0","",""
"92128","","Tikkala E","62.150304077962","25.4710657586314","2","","0","","179","","","0","",""
"92149","","Iloniementie L","62.0300372604931","25.613269907291777","2","","0","","179","","","0","","3"
"92150","","Iloniementie I","62.02980579145223","25.614310604389743","2","","0","","179","","","0","","3"
"92151","","Piesasentie L","62.02410312416659","25.63017712302597","2","","0","","179","","","0","","3"
"92152","","Piesasentie E","62.02330676949493","25.631164175943045","2","","0","","179","","","0","","3"
"92153","","Vitikkalantie P","62.01698975230208","25.640691382362963","2","","0","","179","","","0","","3"
"92154","","Vitikkalantie E","62.01650647734216","25.642493826820786","2","","0","","179","","","0","","3"
"92155","","Heinosniementie P","62.01181643706253","25.653705460504874","2","","0","","179","","","0","","3"
"92156","","Heinosniementie E","62.011276589323266","25.6545320899285","2","","0","","179","","","0","","3"
"92157","","Kärkinen L","62.0055373775154","25.673714739754516","2","","0","","179","","","0","","3"
"92159","","Tahkosaari P","62.001728019279426","25.679543649010803","2","","0","","179","","","0","","3"
"92160","","Tahkosaari E","62.00053935902567","25.678513680749194","2","","0","","179","","","0","","3"
"92161","","Lintusaari P","61.99315910099702","25.671971303897557","2","","0","","179","","","0","","3"
"92162","","Lintusaari E","61.992227201606774","25.67176745601215","2","","0","","179","","","0","","3"
"92163","","Sutostenpääntie P","61.9879795820374","25.673945409732617","2","","0","","179","","","0","","3"
"92164","","Sutostenpääntie E","61.98689352393363","25.674610418500468","2","","0","","179","","","0","","3"
"92165","","Kaurasuontie P","61.98230274809624","25.67774478425405","3","","0","","179","","","0","","3"
"92166","","Kaurasuontie E","61.9817786034375","25.678173937696688","3","","0","","179","","","0","","3"
"92167","","Veijonjärventie E","61.968091934207884","25.691020404079243","3","","0","","179","","","0","","3"
"92168","","Veijonjärventie P","61.967224670674995","25.691256438471033","3","","0","","179","","","0","","3"
"92169","","Syvälahti P","61.963309371049256","25.6936596459887","3","","0","","179","","","0","","3"
"92170","","Syvälahti E","61.96099067608212","25.693960053400435","3","","0","","179","","","0","","3"
"92171","","Veijontie P","61.95632820034792","25.693398726208187","3","","0","","179","","","0","","3"
"92172","","Veijontie E","61.95542117990813","25.69290326305152","3","","0","","179","","","0","","3"
"92173","","Oittilan th E","61.9501620938162","25.694780809361152","3","","0","","179","","","0","","3"
"92174","","Oittilan th P","61.949662622747695","25.695928794820006","3","","0","","179","","","0","","3"
"92175","","Syväkorventie E","61.94577543052276","25.69953636047984","3","","0","","179","","","0","","3"
"92176","","Syväkorventie P","61.94561740325396","25.699858231026045","3","","0","","179","","","0","","3"
"92177","","Niittyniementie P","61.91546980164399","25.724263650852507","3","","0","","179","","","0","","3"
"92178","","Niittyniementie E","61.9150707815939","25.722783071476442","3","","0","","179","","","0","","3"
"92179","","Vanhavaaruntie P","61.91372835939802","25.717504484135677","3","","0","","179","","","0","","3"
"92180","","Vanhavaaruntie E","61.912985832590195","25.716184837299586","3","","0","","179","","","0","","3"
"92181","","Nikkiläntie E","61.9088508366935","25.712910758292814","3","","0","","179","","","0","","3"
"92182","","Nikkiläntie P","61.90844578278817","25.713180763203816","3","","0","","179","","","0","","3"
"92183","","Töppöspohjantie E","61.902397923985795","25.712419015843064","3","","0","","179","","","0","","3"
"92184","","Töppöspohjantie P","61.90217559059897","25.71237610049853","3","","0","","179","","","0","","3"
"92185","","Könnöntie P","61.897137285008505","25.7167749232831","3","","0","","179","","","0","","3"
"92186","","Könnöntie E","61.89674188488876","25.716780287701283","3","","0","","179","","","0","","3"
"92187","","Putkilahti P","61.89026828831653","25.721345407445806","3","","0","","179","","","0","","3"
"92188","","Putkilahti E","61.88998906607775","25.721726281123935","3","","0","","179","","","0","","3"
"92189","","Herapohjantie P","61.8867930829932","25.72648451991571","3","","0","","179","","","0","","3"
"92190","","Kassinsaarentie E","61.8858008504775","25.72736154347931","3","","0","","179","","","0","","3"
"92191","","Etu-Varmantie P","61.87459125176806","25.75000749297465","3","","0","","179","","","0","","3"
"92351","","Vehmaantie E","62.083871744889","26.0564466015208","3","","0","","850","","","0","",""
"92352","","Vehmaantie P","62.084336714817","26.0575387780018","3","","0","","850","","","0","",""
"92353","","Kiikarvuori E","62.0863492319932","26.0623452658874","3","","0","","850","","","0","",""
"92354","","Kiikarvuori P","62.0864791572353","26.0626553081453","3","","0","","850","","","0","",""
"92355","","Kakaravaara E","62.0900099540281","26.0702231424424","3","","0","","850","","","0","",""
"92356","","Kakaravaara P","62.0903575284597","26.0714658647134","3","","0","","850","","","0","",""
"92357","","Kanervakuja E","62.0935452547219","26.0775259641685","3","","0","","850","","","0","",""
"92358","","Paloisentie E","62.0955752964395","26.0795112881002","3","","0","","850","","","0","",""
"92359","","Paloisentie P","62.0964525186171","26.0803619038093","3","","0","","850","","","0","",""
"92360","","Toivakantie 57 E","62.102033660142496","26.086891135996904","3","","0","","850","","","0","",""
"92361","","Toivakantie 57 P","62.103188239483416","26.090023956126274","3","","0","","850","","","0","",""
"92362","","Aittojärventie E","62.10651349856145","26.094185922351265","3","","0","","850","","","0","",""
"92363","","Aittojärventie P","62.106974384357414","26.094470446651354","3","","0","","850","","","0","",""
"92364","","Saarisenraitti E","62.112609633666175","26.09490507350027","3","","0","","850","","","0","",""
"92365","","Saarisenraitti P","62.113101418706975","26.09554880366378","3","","0","","850","","","0","",""
"92366","","Leppälahdenväylä E","62.11615200066347","26.096713404942445","3","","0","","850","","","0","",""
"92367","","Leppälahdenväylä P","62.11666621729771","26.097037059743126","3","","0","","850","","","0","",""
"92368","","Havula E","62.11983525799185","26.098482551837783","3","","0","","850","","","0","",""
"92369","","Havula P","62.120606621069335","26.09899485375905","3","","0","","850","","","0","",""
"92370","","Havulankangas E","62.12687924881793","26.101865035969436","3","","0","","850","","","0","",""
"92371","","Havulankangas P","62.127719505580025","26.10228906140173","3","","0","","850","","","0","",""
"92372","","Liikalantie E","62.13044766247075","26.105077611159114","3","","0","","850","","","0","",""
"92373","","Liikalantie P","62.130993663907624","26.106280079672622","3","","0","","850","","","0","",""
"92374","","Lamminpäänlampi E","62.13449407996165","26.107996693441372","3","","0","","850","","","0","",""
"92375","","Lamminpäänlampi P","62.135166033329845","26.10788940508139","3","","0","","850","","","0","",""
"92376","","Valkeisentie E","62.13849579133145","26.10720484335489","3","","0","","850","","","0","",""
"92377","","Valkeisentie P","62.13919773907128","26.108084607911984","3","","0","","850","","","0","",""
"92378","","Maunonen E","62.142906852233686","26.115399462660335","3","","0","","850","","","0","",""
"92379","","Maunonen P","62.14311740759295","26.116236311872896","3","","0","","850","","","0","",""
"92380","","Salmenniemi E","62.14584627846073","26.121197842107545","3","","0","","850","","","0","",""
"92381","","Huikon kylätalo P","62.15043601822411","26.1307896206563","3","","0","","850","","","0","",""
"92382","","Huikon kylätalo E","62.150945254942854","26.131363970713537","3","","0","","850","","","0","",""
"92383","","Huikko P","62.15282858446709","26.13423684292006","3","","0","","850","","","0","",""
"92384","","Hautakoskentie E","62.158168839468004","26.14225515851748","3","","0","","850","","","0","",""
"92385","","Hautakoskentie P","62.1589066580245","26.143427283858585","3","","0","","850","","","0","",""
"92386","","Särkilamminsuo E","62.16410543452881","26.149216753919916","3","","0","","850","","","0","",""
"92387","","Särkilamminsuo P","62.16456632621717","26.150096518477007","3","","0","","850","","","0","",""
"92388","","Ruokosenkangas E","62.16854304709248","26.16442965827716","3","","0","","850","","","0","",""
"92390","","Huikontie 907 E","62.176712851916534","26.176382166820847","3","","0","","850","","","0","",""
"92391","","Huikontie 915 P","62.17694320260324","26.176768404918956","3","","0","","850","","","0","",""
"92392","","Ruuhimäki th E","62.18174748691108","26.182235905186403","3","","0","","850","","","0","",""
"92393","","Ruuhimäki th P","62.182451204225245","26.183543664893016","3","","0","","850","","","0","",""
"92394","","Ruuhipirtintie E","62.191854411095626","26.203772885282607","3","","0","","850","","","0","",""
"92395","","Ruuhipirtintie I","62.192475041463275","26.204717022856048","3","","0","","850","","","0","",""
"92396","","Kangasniementie L","62.19662112805302","26.216900255269564","3","","0","","850","","","0","",""
"92527","","Saarijärventie P","62.307884068778","25.6977764519641","1","","0","","179","","","0","",""
"92528","","Lintukangas E","62.3097938338133","25.6957913872543","1","","0","","179","","","0","",""
"92529","","Lintukangas P","62.3104221402324","25.6950658471709","1","","0","","179","","","0","",""
"92530","","Lintula P","62.3133734263689","25.6886124425781","2","","0","","179","","","0","",""
"92531","","Lintula E","62.3135637669012","25.6883232440771","2","","0","","179","","","0","",""
"92532","","Pohjola E","62.3186790526288","25.6833896064949","2","","0","","179","","","0","",""
"92533","","Pohjola P","62.3192160233764","25.6829647510327","2","","0","","179","","","0","",""
"92534","","Rannilantie E","62.3281646603202","25.6785609220429","2","","0","","179","","","0","",""
"92535","","Rannilantie P","62.328823422813","25.6784040902777","2","","0","","179","","","0","",""
"92536","","Kennääntie E","62.3338166603334","25.6781585964134","2","","0","","179","","","0","",""
"92537","","Kennääntie P","62.3346378778574","25.6786281421957","2","","0","","179","","","0","",""
"92538","","Korttajärvi P","62.3379754026474","25.6782101400684","2","","0","","179","","","0","",""
"92539","","Korttajärvi E","62.3385537744247","25.6783031129338","2","","0","","179","","","0","",""
"92540","","Puuppola E","62.3444033028976","25.679074680163","2","","0","","179","","","0","",""
"92541","","Puuppola P","62.345093302334","25.6786623649599","2","","0","","179","","","0","",""
"92542","","Lehtotie E","62.3481433853182","25.6768279062376","2","","0","","179","","","0","",""
"92543","","Lehtotie P","62.3493572397684","25.6776068736662","2","","0","","179","","","0","",""
"92545","","Suontaustantie P","62.3528060383158","25.6759488492511","2","","0","","179","","","0","",""
"92546","","Mehtolantie E","62.3567218560425","25.6656790391947","2","","0","","179","","","0","",""
"92547","","Mehtolantie P","62.3570538924333","25.6653732590184","2","","0","","179","","","0","",""
"92548","","Tikantie th E","62.36228973717397","25.659806996727497","2","","0","","179","","","0","",""
"92549","","Tikantie th P","62.36297788453629","25.658680844831377","2","","0","","179","","","0","",""
"92550","","Rajaniementie E","62.36597119186578","25.651914227195835","2","","0","","179","","","0","",""
"92551","","Rajaniementie L","62.365696611793794","25.652661038380455","2","","0","","179","","","0","",""
"92552","","Korkeamäki I","62.372691075382214","25.62467371252238","2","","0","","179","","","0","",""
"92553","","Korkeamäki L","62.37312888612693","25.623772490293472","2","","0","","179","","","0","",""
"92554","","Heinosenmäki I","62.37506634731308","25.61626558891204","2","","0","","179","","","0","",""
"92555","","Heinosenmäki P","62.37567229085554","25.615157234937026","2","","0","","179","","","0","",""
"92556","","Ränssi E","62.37710492545954","25.60622523163506","2","","0","","179","","","0","",""
"92557","","Ränssi P","62.37770095961343","25.60478245046819","2","","0","","179","","","0","",""
"92558","","Kuikka P","62.3816106526332","25.5870548746971","2","","0","","179","","","0","",""
"92559","","Kuikka E","62.3815784828704","25.586007377934195","2","","0","","179","","","0","",""
"92560","","Kuikan lava E","62.3845671997051","25.57167365295799","2","","0","","179","","","0","",""
"92561","","Kuikan lava P","62.385044621952616","25.571244499515352","2","","0","","179","","","0","",""
"92562","","Töyryläntie E","62.388168890177916","25.56293563866235","2","","0","","179","","","0","",""
"92563","","Töyryläntie P","62.388684716522455","25.561803123782706","2","","0","","179","","","0","",""
"92564","","Köntysmäentie E","62.391348588190205","25.553091308901735","2","","0","","179","","","0","",""
"92565","","Köntysmäentie P","62.39187689458103","25.55253340942819","2","","0","","179","","","0","",""
"92566","","Syväoja E","62.393831456792476","25.546273222373514","2","","0","","179","","","0","",""
"92567","","Syväoja P","62.394283873601076","25.5454256443246","2","","0","","179","","","0","",""
"92720","","Ampumaradantie E","62.2972336922826","25.814408575537193","1","","0","","179","","","0","",""
"92721","","Ampumaradantie P","62.2978284337516","25.8157216821572","1","","0","","179","","","0","",""
"92722","","Tiituspohja th L","62.3067483128276","25.8327384319057","2","","0","","410","","","0","",""
"92726","","Tiituspohja E","62.31486803634606","25.848327637715954","2","","0","","410","","","0","",""
"92727","","Tiituspohja P","62.31547682619861","25.848832570252096","2","","0","","410","","","0","",""
"92728","","Aallopintie E","62.32342104309665","25.85644143906637","2","","0","","410","","","0","",""
"92729","","Aallopintie P","62.324075714036866","25.85742038128609","2","","0","","410","","","0","",""
"92730","","Vaajakoski th E","62.3297683486114","25.8620132908981","2","","0","","410","","","0","",""
"92731","","Vaajakoski th P","62.3309117129937","25.8626145773498","2","","0","","410","","","0","",""
"92733","","Ala-Kuukkalantie E","62.34472186212778","25.8751425903693","2","","0","","410","","","0","",""
"92734","","Ala-Kuukkalantie P","62.34537858510958","25.875607580775185","2","","0","","410","","","0","",""
"92735","","Pekkalantie P","62.3529590486278","25.8780697324506","2","","0","","410","","","0","",""
"92736","","Tikkisentie E","62.3548537190313","25.87888900826","2","","0","","410","","","0","",""
"92737","","Tikkisentie P","62.3558972037258","25.879332757554","2","","0","","410","","","0","",""
"92738","","Sikomäki E","62.3603381847824","25.8812167660548","2","","0","","410","","","0","",""
"92739","","Sikomäki P","62.3617970956217","25.881834194449","2","","0","","410","","","0","",""
"92740","","Jyväskyläntie 643 E","62.3688799071613","25.8845034467308","2","","0","","410","","","0","",""
"92741","","Jyväskyläntie 636 P","62.3699614972873","25.8854764298917","2","","0","","410","","","0","",""
"92742","","Hienonen th E","62.37314204730306","25.890691794262583","2","","0","","410","","","0","",""
"92743","","Hienonen th P","62.373798171541225","25.892533663355472","2","","0","","410","","","0","",""
"92744","","Haaviston th E","62.37771496671197","25.901191803301728","2","","0","","410","","","0","",""
"92745","","Jyväskyläntie 517 P","62.3786163227661","25.9026239911749","2","","0","","410","","","0","",""
"92746","","Pieni Kuhajärvi E","62.3814268420245","25.9056493171242","2","","0","","410","","","0","",""
"92747","","Pieni Kuhajärvi P","62.3819098090961","25.9059317957683","2","","0","","410","","","0","",""
"92748","","Leppäläntie E","62.3904330685214","25.9107006199275","2","","0","","410","","","0","",""
"92749","","Leppäläntie P","62.390926080405","25.9112001171337","2","","0","","410","","","0","",""
"92750","","Lahnajärvi E","62.3969360955165","25.9200141576923","2","","0","","410","","","0","",""
"92751","","Lahnajärvi P","62.3973909080992","25.9208821279769","2","","0","","410","","","0","",""
"92752","","Lemettilänmäentie E","62.4043803813655","25.9300393381759","2","","0","","410","","","0","",""
"92753","","Lemettilänmäentie P","62.4048821857902","25.9309024009727","2","","0","","410","","","0","",""
"92754","","Rajamäki P","62.4091734897816","25.9459635154489","2","","0","","410","","","0","",""
"92755","","Vuojärvi E","62.4115667407622","25.9490941309997","2","","0","","410","","","0","",""
"92756","","Uimarannantie E","62.4193513500134","25.9404747331449","2","","0","","410","","","0","",""
"92757","","Uimarannantie P","62.4201169928773","25.9380290745247","2","","0","","410","","","0","",""
"92758","","Laajalahdentie P","62.4218213329028","25.9328367593525","2","","0","","410","","","0","",""
"92759","","Laajalahdentie E","62.4220057433212","25.9319652677853","2","","0","","410","","","0","",""
"92760","","Rokkakangas E","62.4228316599158","25.9257604504783","2","","0","","410","","","0","",""
"92761","","Rokkakangas P","62.4231595569209","25.9227820843455","2","","0","","410","","","0","",""
"92762","","Rokkamäki Vehniä th E","62.4245758919648","25.9182562399636","2","","0","","410","","","0","",""
"92763","","Rokkamäki Vehniä th P","62.4258459986218","25.9166933096063","2","","0","","410","","","0","",""
"92764","","Peurungantie E","62.4287225167472","25.9151676545512","2","","0","","410","","","0","",""
"92765","","Peurungantie P","62.4296531354143","25.9146939383498","2","","0","","410","","","0","",""
"92766","","Harjutie E","62.434516384959814","25.915350532048937","2","","0","","410","","","0","",""
"92767","","Harjutie P","62.43523353663165","25.916098293636043","2","","0","","410","","","0","",""
"92768","","Hinkkasensuora P","62.439452245941965","25.92153943278668","2","","0","","410","","","0","",""
"92769","","Hinkkasensuora E","62.44004602287693","25.922184425605085","2","","0","","410","","","0","",""
"92770","","Suolahdentie 425 E","62.4429159731892","25.9242419967434","2","","0","","410","","","0","",""
"92771","","Suolahdentie 425 P","62.4440240569325","25.9248854074852","2","","0","","410","","","0","",""
"92772","","Oitinkorpi E","62.4475663573853","25.9280004445059","2","","0","","410","","","0","",""
"92773","","Oitinkorpi P","62.4483083497297","25.9286614481264","2","","0","","410","","","0","",""
"92774","","Koskelantie E","62.4498507155097","25.9313563893476","2","","0","","410","","","0","",""
"92775","","Koskelantie P","62.4502448891701","25.9325830693174","2","","0","","410","","","0","",""
"92776","","Kuusa E","62.4545071837216","25.9429013205432","2","","0","","410","","","0","",""
"92777","","Kuusa P","62.4556418314608","25.9433440964892","2","","0","","410","","","0","",""
"92778","","Äijäläntien siltä I","62.4583715460036","25.9440166627303","2","","0","","410","","","0","",""
"92779","","Äijäläntien siltä L","62.4585753869089","25.9456652718786","2","","0","","410","","","0","",""
"92780","","Talaanmäki L","62.4591876480332","25.9505800549408","2","","0","","410","","","0","",""
"92781","","Talaanmäki I","62.4592833701008","25.9527751137212","2","","0","","410","","","0","",""
"92782","","Ränssi th L","62.4574746055754","25.9680763316513","2","","0","","410","","","0","",""
"92783","","Ränssi th I","62.4578016829757","25.9696331970699","2","","0","","410","","","0","",""
"92784","","Kauppisen notko I","62.4602142968521","25.9769125945201","2","","0","","410","","","0","",""
"92785","","Kauppisen notko L","62.4606502052766","25.9782599617848","2","","0","","410","","","0","",""
"92786","","Leinolantie E","62.4628032342622","25.9855529705656","2","","0","","410","","","0","",""
"92787","","Leinolantie P","62.4634571118145","25.9864968928943","2","","0","","410","","","0","",""
"92788","","Nikinsuo E","62.4684948831938","25.9892929804433","2","","0","","410","","","0","",""
"92789","","Nikinsuo P","62.4693566468492","25.990243943097","2","","0","","410","","","0","",""
"92790","","Viitalantie E","62.4729560114303","25.9972626172488","2","","0","","410","","","0","",""
"92791","","Viitalantie P","62.4736535705899","25.9983178037986","2","","0","","410","","","0","",""
"92792","","Allunlahdentie E","62.477412513911304","26.00594389809956","2","","0","","410","","","0","",""
"92793","","Allunlahdentie P","62.47803712872995","26.00760366212479","2","","0","","410","","","0","",""
"92794","","Tervatehdas E","62.4807715328506","26.0100242964144","2","","0","","410","","","0","",""
"92795","","Tervatehdas P","62.4821575615347","26.0102540864483","2","","0","","410","","","0","",""
"92796","","Hietasyrjän th P","62.486771049099026","26.010669235879355","2","","0","","410","","","0","",""
"92797","","Hietasyrjän th E","62.48605761533712","26.010486299770342","2","","0","","410","","","0","",""
"92798","","Korkeakoski L","62.4963228855164","26.0211938562963","2","","0","","410","","","0","",""
"92799","","Korkeakoski I","62.4968122016398","26.0226833060054","2","","0","","410","","","0","",""
"92800","","Miljoonatie L","62.5000352648942","26.0331731610693","2","","0","","410","","","0","",""
"92801","","Miljoonatie I","62.5003672149486","26.0341083197341","2","","0","","410","","","0","",""
"92802","","Tervalampi E","62.5044876389538","26.0389448370061","2","","0","","410","","","0","",""
"92803","","Tervalampi P","62.5054299304192","26.0398791326494","2","","0","","410","","","0","",""
"92804","","Nurmijärventie P","62.5072916713782","26.0423133054308","2","","0","","410","","","0","",""
"92805","","Nurmijärventie E","62.508109969828","26.043407423691","2","","0","","410","","","0","",""
"92806","","Isolahti E","62.5101927824674","26.0451497474955","2","","0","","410","","","0","",""
"92807","","Isolahti P","62.5111044781296","26.0456898764211","2","","0","","410","","","0","",""
"92808","","Häppäläntie E","62.5166948038275","26.0438046970399","2","","0","","410","","","0","",""
"92809","","Häppäläntie P","62.5176837047079","26.0443860064129","2","","0","","410","","","0","",""
"92810","","Äijälä E","62.5250623876539","26.0517495766453","2","","0","","410","","","0","",""
"92811","","Äijälä P","62.5256192252423","26.0515380924143","2","","0","","410","","","0","",""
"92812","","Muikkuniementie E","62.5290912368576","26.0543541144359","2","","0","","410","","","0","",""
"92813","","Muikkuniementie P","62.5297938336868","26.0549108268442","2","","0","","410","","","0","",""
"92814","","Ristilä E","62.5360822468674","26.0550045200776","2","","0","","410","","","0","",""
"92815","","Ristilä P","62.5367571477435","26.0554378338875","2","","0","","410","","","0","",""
"92816","","Uurapohjantie E","62.54152552580472","26.059201200482793","2","","0","","410","","","0","",""
"92817","","Uurapohjantie P","62.5419913758278","26.0595173352501","2","","0","","410","","","0","",""
"92818","","Lepikontie E","62.5466759582884","26.0612349402238","2","","0","","410","","","0","",""
"92819","","Lepikontie P","62.5472884484847","26.061772330944","2","","0","","410","","","0","",""
"92820","","Heinäaho E","62.554245666087326","26.06083032300153","2","","0","","410","","","0","",""
"92821","","Heinäaho P","62.5549034279092","26.06120143627838","2","","0","","410","","","0","",""
"92828","","Saarikkaantie I","62.64035200315159","26.04436581391864","3","","0","","992","","","0","",""
"92829","","Kuokankangas P","62.646527700073065","26.049649301817983","3","","0","","992","","","0","",""
"92830","","Kuokankangas E","62.64680770270804","26.049523713352176","3","","0","","992","","","0","",""
"92831","","Sumiainen kirkko E","62.65515869200012","26.04828515302399","3","","0","","992","","","0","",""
"92832","","Sumiainen kirkko P","62.65627194757515","26.04821400609162","3","","0","","992","","","0","",""
"92833","","Hakolanpelto E","62.66069826444154","26.046910732788163","3","","0","","992","","","0","",""
"92834","","Heikkisniementie E","62.68071430916492","26.037480812459986","3","","0","","992","","","0","",""
"92835","","Heikkisniementie P","62.68149489769044","26.037461880809378","3","","0","","992","","","0","",""
"92836","","Majasaari E","62.693886631511816","26.038594537192104","3","","0","","992","","","0","",""
"92837","","Majasaari P","62.69477316164787","26.038689904711937","3","","0","","992","","","0","",""
"92838","","Peiponsalmi E","62.70673423094236","26.03149819818976","3","","0","","992","","","0","",""
"92839","","Peiponsalmi P","62.70757809046954","26.030296664995483","3","","0","","992","","","0","",""
"92840","","Niinimäentie E","62.71618891378543","26.015597951722498","3","","0","","992","","","0","",""
"92841","","Niinimäentie P","62.71678703088419","26.014901684971896","3","","0","","992","","","0","",""
"92842","","Kierälahti E","62.730897230578066","25.986547991012074","3","","0","","992","","","0","",""
"92843","","Kierälahti P","62.73095226412625","25.984465208713","3","","0","","992","","","0","",""
"92844","","Matilanvirrantie 1038 E","62.734475569723095","25.97498837722747","3","","0","","992","","","0","",""
"92845","","Matilanvirrantie 1038 P","62.735306146966415","25.973676483744832","3","","0","","992","","","0","",""
"92846","","Tapionrannantie E","62.73903292856268","25.96768043538004","3","","0","","992","","","0","",""
"92847","","Tapionrannantie P","62.74011166535882","25.96654069902996","3","","0","","992","","","0","",""
"92848","","Pirttisalmi E","62.74786819246567","25.95652075965526","3","","0","","992","","","0","",""
"92849","","Pirttisalmi P","62.74865539220938","25.956407667911456","3","","0","","992","","","0","",""
"92850","","Matilanvirrantie 1358 L","62.75835385247021","25.94287859239339","3","","0","","992","","","0","",""
"92851","","Matilanvirrantie 1358 I","62.75847616920054","25.9420728945616","3","","0","","992","","","0","",""
"92852","","Jänislahdentie L","62.759953478617405","25.927210952045122","3","","0","","992","","","0","",""
"92853","","Jänislahdentie I","62.7603059410215","25.925770031488952","3","","0","","992","","","0","",""
"92854","","Riihilahdentie I","62.76425916261559","25.908468912907924","3","","0","","992","","","0","",""
"92855","","Riihilahdentie L","62.76450846937574","25.907347861916875","3","","0","","992","","","0","",""
"92856","","Parkkijärventie I","62.76974276600175","25.87503791556195","3","","0","","992","","","0","",""
"92857","","Parkkijärventie L","62.77004677791358","25.873095647106894","3","","0","","992","","","0","",""
"92858","","Petäjäniementie I","62.77367192513921","25.8502685051998","3","","0","","992","","","0","",""
"92859","","Petäjäniementie L","62.77381056245819","25.849048194996744","3","","0","","992","","","0","",""
"92860","","Vihtalahti I","62.77538534126115","25.828426767797303","3","","0","","992","","","0","",""
"92861","","Vihtalahti L","62.7754711342358","25.82723309721698","3","","0","","992","","","0","",""
"92862","","Lapinniementie I","62.77607429408608","25.818597956405643","3","","0","","992","","","0","",""
"92863","","Lapinniementie L","62.776238970200964","25.817192889726034","3","","0","","992","","","0","",""
"92864","","Välskärintie E","62.78571861703579","25.808634715865235","3","","0","","992","","","0","",""
"92865","","Välskärintie P","62.786443793537366","25.809582504110768","3","","0","","992","","","0","",""
"92866","","Hautama E","62.78995665986798","25.812671359611","3","","0","","992","","","0","",""
"92867","","Hautama P","62.7908451339795","25.81326556913182","3","","0","","992","","","0","",""
"92868","","Panda E","62.2485543770392","25.8760317677805","1","","0","","179","","","0","",""
"92869","","Panda P","62.2494690795849","25.8774944782573","1","","0","","179","","","0","",""
"92870","","Tölskä th E","62.2511016093902","25.8793405772039","1","","0","","179","","","0","",""
"92871","","Tölskä th P","62.2521795498138","25.8805087065407","1","","0","","179","","","0","",""
"92872","","Pöytäkangas E","62.256750102358","25.8816129521923","1","","0","","179","","","0","",""
"92873","","Pöytäkangas P","62.2576560417163","25.8840679914252","1","","0","","179","","","0","",""
"92874","","Rahkosentie E","62.2600338073278","25.8865761909851","1","","0","","179","","","0","",""
"92875","","Rahkosentie P","62.2611087371145","25.8877918751153","1","","0","","179","","","0","",""
"92876","","Kivilampi th E","62.264990497346","25.8882200563532","1","","0","","179","","","0","",""
"92877","","Kivilampi th P","62.2650883247754","25.8882391632907","1","","0","","179","","","0","",""
"92878","","Janatie E","62.2673205069179","25.8886713508827","1","","0","","179","","","0","",""
"92879","","Janatie P","62.267882268785","25.8887803734634","1","","0","","179","","","0","",""
"92880","","Mustalahti P","62.2721642112425","25.8902394363555","1","","0","","179","","","0","",""
"92881","","Mustalahti E","62.2724416883983","25.8903791074443","1","","0","","179","","","0","",""
"92882","","Venevalkama P","62.2748505892003","25.8915954427449","1","","0","","179","","","0","",""
"92883","","Venevalkama E","62.2757706238428","25.8920642726801","1","","0","","179","","","0","",""
"92884","","Leppävedentie 402 E","62.2798043439686","25.8933225752605","1","","0","","179","","","0","",""
"92885","","Leppävedentie 405 P","62.2803492673749","25.8934166317461","1","","0","","179","","","0","",""
"92886","","Savumäentie E","62.2851590943427","25.8920645835131","2","","0","","410","","","0","",""
"92887","","Savumäentie P","62.2856267423703","25.8917391189701","2","","0","","410","","","0","",""
"92888","","Nojosniemi th P","62.2894111547034","25.890317054427","2","","0","","410","","","0","",""
"92889","","Nojosniemi th E","62.2897170020436","25.8901567894188","2","","0","","410","","","0","",""
"92890","","Vihtiäläntie P","62.2960026408439","25.8838362219898","2","","0","","410","","","0","",""
"92891","","Vihtiäläntie E","62.2963431875223","25.8834188490369","2","","0","","410","","","0","",""
"92892","","Vaajakoskentie 391 P","62.3005848982383","25.8772647965082","2","","0","","410","","","0","",""
"92893","","Vaajakoskentie 390 E","62.3010100446601","25.8770505375462","2","","0","","410","","","0","",""
"92894","","Halkolaanintie P","62.325948383827914","25.874031705010086","2","","0","","410","","","0","",""
"92895","","Seppäläntie E","62.3283117194726","25.8713535048145","2","","0","","410","","","0","",""
"92897","","Havurinne I","62.3298442389843","25.8642824299629","2","","0","","410","","","0","",""
"92923","","Vuontee I","62.3150662624236","25.9844051672329","2","","0","","410","","","0","",""
"92924","","Vuontee L","62.3149889996824","25.9824359202011","2","","0","","410","","","0","",""
"92925","","Laukaan vankila I","62.3161087306313","25.9766374636007","2","","0","","410","","","0","",""
"92926","","Laukaan vankila P","62.3165434000768","25.9747135925798","2","","0","","410","","","0","",""
"92929","","Karisaari E","62.3229666527144","25.9642222184959","2","","0","","410","","","0","",""
"92930","","Karisaari P","62.3239859672321","25.9640129382384","2","","0","","410","","","0","",""
"92931","","Majalahti E","62.3312078105838","25.9568571994129","2","","0","","410","","","0","",""
"92932","","Majalahti L","62.3321368423152","25.9560865783019","2","","0","","410","","","0","",""
"92933","","Kuusisaaren th E","62.3327859504901","25.9509261226713","2","","0","","410","","","0","",""
"92934","","Kuusisaaren th P","62.3326499647855","25.9491799340608","2","","0","","410","","","0","",""
"92935","","Vihtalahti E","62.3380593726365","25.9350603271397","2","","0","","410","","","0","",""
"92936","","Vihtalahti P","62.3389069831498","25.9339876454498","2","","0","","410","","","0","",""
"92937","","Vihtasilta th E","62.3474242621739","25.929309725043","2","","0","","410","","","0","",""
"92939","","Mansikkaniemi E","62.355739530693","25.9333184654473","2","","0","","410","","","0","",""
"92940","","Kantolantie L","62.3561654288574","25.9325379672748","2","","0","","410","","","0","",""
"92941","","Samulinkallio I","62.3587056381157","25.923119853692","2","","0","","410","","","0","",""
"92942","","Samulinkallio L","62.3586427652768","25.923257594067","2","","0","","410","","","0","",""
"92943","","Aholantie I (Laukaa)","62.362762365268075","25.9132731987609","2","","0","","410","","","0","","3"
"92944","","Aholantie L (Laukaa)","62.36341973267221","25.911900125052675","2","","0","","410","","","0","",""
"92945","","Vehmasahontie L","62.3645236648665","25.9081085482899","2","","0","","410","","","0","",""
"92946","","Vehmasahontie I","62.3648227698373","25.9069905806035","2","","0","","410","","","0","",""
"92947","","Haavistontie I","62.366244670574964","25.901439773673378","2","","0","","410","","","0","",""
"92948","","Haavistontie L","62.36674524720321","25.899608014542295","2","","0","","410","","","0","",""
"92949","","Hermannintie I","62.366654615386075","25.889177042205937","2","","0","","410","","","0","",""
"92950","","Hermannintie L","62.3668881289606","25.888180305272225","2","","0","","410","","","0","",""
"92951","","Ysitien ramppi th E","62.312094994560965","26.494467933578893","3","","0","","77","","","0","",""
"92952","","Ysitien ramppi th P","62.31318155058521","26.493951981578785","3","","0","","77","","","0","",""
"92953","","Pirttihertuntie E","62.31777960287803","26.49071021016614","3","","0","","77","","","0","",""
"92954","","Pirttihertuntie P","62.3188962309972","26.490332644906005","3","","0","","77","","","0","",""
"92955","","Hertunniemi E","62.329680346107246","26.48159745974649","3","","0","","77","","","0","",""
"92956","","Hertunniemi P","62.33050155566447","26.480451860944726","3","","0","","77","","","0","",""
"92957","","Pihlajaseläntie E","62.33685814358666","26.471331570150447","3","","0","","77","","","0","",""
"92958","","Pihlajaseläntie P","62.33879580570228","26.468870736093848","3","","0","","77","","","0","",""
"92959","","Hankasalmen leirikeskus E","62.34448882808267","26.46567857064713","3","","0","","77","","","0","",""
"92960","","Hankasalmen leirikeskus P","62.3451738730419","26.465101495492622","3","","0","","77","","","0","",""
"92961","","Kallioaho E","62.3511810191079","26.459870931881376","3","","0","","77","","","0","",""
"92962","","Kallioaho P","62.35228828339201","26.45874093160584","3","","0","","77","","","0","",""
"92963","","Koivula E","62.35969035913071","26.45209529927245","3","","0","","77","","","0","",""
"92965","","Piilolantie E","62.36581999927413","26.448398535442752","3","","0","","77","","","0","",""
"92966","","Piilolantie P","62.36650561773687","26.447756725025968","3","","0","","77","","","0","",""
"92967","","Kantolantie E","62.36899680121254","26.445413459442122","3","","0","","77","","","0","",""
"92968","","Kantolantie P","62.37020691763539","26.444141930991528","3","","0","","77","","","0","",""
"92969","","Hännilä E","62.37182623740299","26.442401557441503","3","","0","","77","","","0","",""
"92970","","Hännilä P","62.373484753915335","26.442313199773032","3","","0","","77","","","0","",""
"92971","","Neuvolantie P","62.37965330968129","26.43965626485123","3","","0","","77","","","0","",""
"92972","","Neuvolantie E","62.380021377460665","26.43965002329083","3","","0","","77","","","0","",""
"92973","","Mäntyrannantie E","62.38261279355965","26.439184575044255","3","","0","","77","","","0","",""
"92974","","Mäntyrannantie P","62.383163177547125","26.43869060830966","3","","0","","77","","","0","",""
"92975","","Hankasalmen kirkko E","62.38657435723103","26.43690250390689","3","","0","","77","","","0","",""
"92976","","Hankasalmen kirkko P","62.38739684306001","26.436566012738467","3","","0","","77","","","0","",""
"93040","","Kuusa pohj E","62.4598511912282","25.9414544357343","2","","0","","410","","","0","",""
"93041","","Kuusa pohj P","62.4609389609358","25.9401821011287","2","","0","","410","","","0","",""
"93042","","Mäntyrannan koulu E","62.462462642537","25.9387344167892","2","","0","","410","","","0","",""
"93043","","Mäntyrannan koulu P","62.4631284816469","25.9384521530679","2","","0","","410","","","0","",""
"93044","","Naavaranta P","62.4698102255518","25.9281756830833","2","","0","","410","","","0","",""
"93045","","Naavaranta E","62.4706575616811","25.927646872196","2","","0","","410","","","0","",""
"93046","","Kotipelto E","62.4762044828522","25.9261215692111","2","","0","","410","","","0","",""
"93047","","Kotipelto P","62.476916860371","25.9252586994011","2","","0","","410","","","0","",""
"93048","","Itämäki E","62.4820782780282","25.9205411870959","2","","0","","410","","","0","",""
"93049","","Itämäki P","62.4829251284658","25.9192561497554","2","","0","","410","","","0","",""
"93050","","Peurankylä E","62.4872924935398","25.9134962391924","2","","0","","410","","","0","",""
"93051","","Peurankylä P","62.4879390844829","25.9129694462254","2","","0","","410","","","0","",""
"93052","","Peurantie E","62.49367316469","25.9045154329553","2","","0","","410","","","0","",""
"93053","","Peurantie P","62.4945390359666","25.9035458309644","2","","0","","410","","","0","",""
"93054","","Vatia E","62.5093269669661","25.8843400109798","2","","0","","410","","","0","",""
"93055","","Vatia P","62.5094402991971","25.8823594214158","2","","0","","410","","","0","",""
"93056","","Kapeenkoskentie P","62.5139599097038","25.8717242340816","2","","0","","410","","","0","",""
"93057","","Kapeenkoskentie E","62.5148367331433","25.8706528818604","2","","0","","410","","","0","",""
"93058","","Peräaho E","62.51862322235","25.8728135509171","2","","0","","410","","","0","",""
"93059","","Peräaho P","62.5196818522101","25.8739689104181","2","","0","","410","","","0","",""
"93060","","Juholantie E","62.5247482234364","25.872899165649","2","","0","","410","","","0","",""
"93061","","Juholantie P","62.5261577696035","25.8724757730617","2","","0","","410","","","0","",""
"93062","","Aapinaho E","62.5389730922392","25.863441440375716","2","","0","","410","","","0","",""
"93063","","Aapinaho P","62.539513902168494","25.861973114218653","2","","0","","410","","","0","",""
"93064","","Kaura-aho th E","62.54359515417452","25.85980823081024","3","","0","","992","","","0","",""
"93065","","Kaura-ahontie E","62.546121361271","25.860815005310368","3","","0","","992","","","0","",""
"93066","","Kaura-ahontie P","62.54694015851605","25.861256142296796","3","","0","","992","","","0","",""
"93067","","Nakertaja E","62.55360817060342","25.854858851789675","3","","0","","992","","","0","",""
"93068","","Nakertaja P","62.5542373822077","25.853894598323464","3","","0","","992","","","0","",""
"93069","","Vuorikuja E","62.558625128169076","25.84935184796824","3","","0","","992","","","0","",""
"93070","","Vuorikuja P","62.5602368504301","25.84776746189584","3","","0","","992","","","0","",""
"93071","","Hotellinpolku P","62.56257384792682","25.842569680045525","3","","0","","992","","","0","",""
"93072","","Hotellinpolku E","62.5627936951313","25.842163766763974","3","","0","","992","","","0","",""
"93073","","Suolahti kirkko I","62.563090250716634","25.838842966199106","3","","0","","992","","","0","",""
"93074","","Alkula I","62.56307952946419","25.83028738563379","3","","0","","992","","","0","",""
"93075","","Alkula L","62.563109824858735","25.82735390423267","3","","0","","992","","","0","",""
"93076","","Alkula teoll. I","62.56317596504815","25.821462394903673","3","","0","","992","","","0","",""
"93077","","Alkula teoll. L","62.563205008031616","25.818560614097393","3","","0","","992","","","0","",""
"93078","","Kotimäki I","62.56342019866984","25.804683186866683","3","","0","","992","","","0","",""
"93079","","Kotimäki L","62.56363872711083","25.802897285721656","3","","0","","992","","","0","",""
"93080","","Hämepohja th I","62.567227241695825","25.7882592056531","3","","0","","992","","","0","",""
"93081","","Paatelanlahti L","62.567734066776595","25.78622720196645","3","","0","","992","","","0","",""
"93082","","Paatelan kanava P","62.57118209496484","25.781385158108787","3","","0","","992","","","0","",""
"93083","","Paatelan kanava E","62.57234236806351","25.781481049797083","3","","0","","992","","","0","",""
"93084","","Paatela P","62.575484625969054","25.782095784295674","3","","0","","992","","","0","",""
"93085","","Paatela E","62.575869138755564","25.78224881501935","3","","0","","992","","","0","",""
"93086","","Rotkolan alikulku E","62.58077268645778","25.782050986123682","3","","0","","992","","","0","",""
"93087","","Rotkolan alikulku P","62.58136298595048","25.781456549894013","3","","0","","992","","","0","",""
"93088","","Valio th P","62.58535879318525","25.77694649860301","3","","0","","992","","","0","",""
"93089","","Valio th E","62.58561873879819","25.776465517457364","3","","0","","992","","","0","",""
"93090","","Pakokangas E","62.58876124617376","25.770273291963782","3","","0","","992","","","0","",""
"93091","","Pakokangas P","62.5892495046741","25.76948617659008","3","","0","","992","","","0","",""
"93092","","Aholankangas E","62.593528789405106","25.76231459536667","3","","0","","992","","","0","",""
"93093","","Aholankangas P","62.59411626037144","25.76118650266114","3","","0","","992","","","0","",""
"93094","","Kovala th I","62.597214232006046","25.754969168789568","3","","0","","992","","","0","",""
"93095","","Kovala th L","62.597755392677456","25.753319277974335","3","","0","","992","","","0","",""
"93096","","Botnia th I","62.60019231796839","25.745742874711294","3","","0","","992","","","0","",""
"93097","","Botnia th L","62.60074942404061","25.744004697783428","3","","0","","992","","","0","",""
"93098","","Hiskimäen koulu I","62.601985121415844","25.739330874494737","3","","0","","992","","","0","",""
"93099","","Hiskinmäen koulu L","62.60201398861392","25.738973284135778","3","","0","","992","","","0","",""
"93100","","Viiskulma L","62.60156627147025","25.729737070367275","3","","0","","992","","","0","",""
"93101","","Viiskulma I","62.60151088313162","25.729880733453697","3","","0","","992","","","0","",""
"93102","","Karhunlähde E","62.60856654077834","25.70426991942341","3","","0","","992","","","0","",""
"93103","","Karhunlähde P","62.60864712932045","25.704074120665222","3","","0","","992","","","0","",""
"93104","","Römmi I","62.61474294343451","25.689173008343513","3","","0","","992","","","0","",""
"93389","","Ruokosenkangas P","62.16960493552221","26.166897290571207","3","","0","","850","","","0","",""
"100000","","Kintauden koulu","62.273397108155024","25.333890024194623","3","","0","","592","","","0","","3"
"112514","","Laukaa linja-autoasema","62.414913839778166","25.95224724199675","2","","0","","410","","","0","",""
"142648","","Tervala 1","62.2155447537345","25.7151751504026","1","","0","","179","","","0","",""
"142792","","Ramppi Muurame I","62.1390834946774","25.6684360519443","2","","0","","500","","","0","",""
"142793","","Setäläntie P","62.137479098655","25.6737841502965","2","","0","","500","","","0","",""
"142794","","Säynätsalo th I","62.1370787313469","25.6766715773302","2","","0","","500","","","0","",""
"142796","","Kotirannantie I","62.1379986503766","25.6848497742757","2","","0","","500","","","0","",""
"142797","","Paavalinvuori th L","62.1394248732585","25.6942609787521","2","","0","","500","","","0","",""
"142798","","Paavalinvuori th I","62.1397060065007","25.695735849286","2","","0","","500","","","0","",""
"142802","","Karkaussaari th I","62.1393535619111","25.7261873849133","2","","0","","179","","","0","",""
"142804","","Kinkovuori  L","62.1374010627009","25.7337280893124","2","","0","","179","","","0","",""
"142805","","Kinkovuori I","62.1375781368102","25.7361482656713","2","","0","","179","","","0","",""
"142806","","Karkauspohja L","62.1389713900728","25.742202315171","2","","0","","179","","","0","",""
"142807","","Karkauspohja I","62.1391580305833","25.7445649002755","2","","0","","179","","","0","",""
"142808","","Riihelä L","62.13900511182203","25.75834565985194","2","","0","","179","","","0","",""
"142809","","Eteläväylä 22 I","62.19042620568197","25.694856107449038","1","","0","","179","","","0","",""
"142810","","Eteläväylä 18 I","62.19006922305517","25.701439794384534","1","","0","","179","","","0","",""
"142811","","Sohlberginkatu L","62.1897702982953","25.706395014044","1","","0","","179","","","0","",""
"142812","","Sohlberginkatu I","62.189615044708","25.7086193476116","1","","0","","179","","","0","",""
"142813","","Keljonkangas L","62.1890975887173","25.7116647039733","1","","0","","179","","","0","",""
"142814","","Keljonkangas  E","62.1880472297545","25.7145241403845","1","","0","","179","","","0","",""
"142815","","Välitie P","62.1871518332688","25.7156209589963","1","","0","","179","","","0","",""
"142816","","Välitie  E","62.1859221240239","25.7171249195046","1","","0","","179","","","0","",""
"142817","","Sääksvuorentie P","62.1834231610281","25.7206324896605","1","","0","","179","","","0","",""
"142818","","Sääksvuorentie E","62.1827486533554","25.7218444802163","1","","0","","179","","","0","",""
"142819","","Sääkslahti P","62.1801490286456","25.7296419351281","1","","0","","179","","","0","",""
"142820","","Sääkslahti E","62.1793419160219","25.7323304459974","1","","0","","179","","","0","",""
"142821","","Tapani E","62.176931538993955","25.7388721859335","1","","0","","179","","","0","",""
"142823","","Tapani P","62.17671736950177","25.73963473375999","1","","0","","179","","","0","",""
"142825","","Ahosenveräjä P","62.17066456129175","25.746204996785146","2","","0","","500","","","0","",""
"142826","","Ahosenveräjä E","62.16997601568495","25.746312122522216","2","","0","","500","","","0","",""
"142827","","Kinkomäki P","62.1681170167154","25.7469382829579","2","","0","","500","","","0","",""
"142828","","Kinkomäki E","62.1673111013324","25.7473429741919","2","","0","","500","","","0","",""
"142829","","Olympiakylä E","62.1624071587846","25.7503742190604","2","","0","","500","","","0","",""
"142830","","Olympiakylä P","62.1619112287033","25.7506824039779","2","","0","","500","","","0","",""
"142831","","Kinkomaan sairaala th P","62.1573728276851","25.754338920443","2","","0","","500","","","0","",""
"142832","","Kinkomaan sairaala th E","62.1573081529883","25.7544045594617","2","","0","","500","","","0","",""
"142833","","Kertuntie P","62.1521400526501","25.7536212994531","2","","0","","500","","","0","",""
"142834","","Kertuntie E","62.151424390407","25.753145383139","2","","0","","500","","","0","",""
"142835","","Betonivalimo P","62.147133173388006","25.750046476770475","2","","0","","500","","","0","",""
"142836","","Betonivalimo E","62.14689126832378","25.74969687490805","2","","0","","500","","","0","",""
"142837","","Ss-Vuorensyrjä P","62.143355443354324","25.74439943874319","2","","0","","179","","","0","",""
"142838","","Vuorensyrjä E","62.1429155390682","25.743828935917","2","","0","","179","","","0","",""
"142839","","Kinkovuorentie th P","62.1401073675765","25.7426056485017","2","","0","","179","","","0","",""
"142842","","Tammitie 2 I","62.2411288278933","25.8132550383514","1","","0","","179","","","0","",""
"142843","","Viherlandia P","62.2339731393044","25.8134531906926","1","","0","","179","","","0","",""
"142846","","Hieta-aho E","62.166832177967905","25.68314647538557","2","","0","","500","","","0","",""
"142847","","Hieta-aho P","62.1677002186435","25.683336123696503","2","","0","","500","","","0","",""
"142848","","Rajahongantie E","62.1747489952183","25.6859916632782","2","","0","","500","","","0","",""
"142849","","Rajahongantie P","62.1754212921237","25.6864162765722","2","","0","","500","","","0","",""
"142850","","Rajarinne E","62.1788192245174","25.6895654448479","1","","0","","179","","","0","",""
"142851","","Rajarinne P","62.1796043542577","25.6909241074084","1","","0","","179","","","0","",""
"142866","","Rutalahti E","61.99648400912036","25.974465472177766","3","","0","","172","","","0","","3"
"142876","","Leppälahdenväylä 17 P","62.117764787334245","26.093172869512877","3","","0","","850","","","0","",""
"142877","","Leppälahdenväylä 17 E","62.11750889874409","26.093424997160103","3","","0","","850","","","0","",""
"142878","","Sahinjoentie P","62.119398120329556","26.08742143547085","3","","0","","850","","","0","",""
"142879","","Koivukumpu E","62.12604738651278","26.07809885485043","3","","0","","850","","","0","",""
"142880","","Koivukumpu P","62.12712844927963","26.077647388742847","3","","0","","850","","","0","",""
"142881","","Kettukankaantie P","62.138369838646156","26.066295935007556","3","","0","","850","","","0","",""
"142883","","Humalajärventie P","62.139986607394746","26.055884799789432","3","","0","","850","","","0","",""
"142884","","Leinosrannantie E","62.14060951702333","26.03871342038189","3","","0","","850","","","0","",""
"142886","","Kurkela E","62.14266307991937","26.03379901359672","3","","0","","850","","","0","",""
"142887","","Matara-aho E","62.148835187765066","26.01819165472757","3","","0","","850","","","0","",""
"142888","","Matara-aho P","62.14923014552336","26.017797674589012","3","","0","","850","","","0","",""
"142889","","Heiska P","62.15591499573875","26.008299729655807","3","","0","","850","","","0","",""
"142891","","Kuusela P","62.16138441261675","26.00120176364034","3","","0","","850","","","0","",""
"142892","","Matarasalo E","62.166058905902034","25.997436783147062","3","","0","","850","","","0","",""
"142893","","Matarasalo P","62.166658848421754","25.997436783147062","3","","0","","850","","","0","",""
"142894","","Rusila E","62.1719236263928","25.9905202912996","2","","0","","179","","","0","",""
"142895","","Rusila P","62.1722759237328","25.9898961667706","2","","0","","179","","","0","",""
"142896","","Talsanlampi E","62.1777354640118","25.97856846232","2","","0","","179","","","0","",""
"142897","","Talsanlampi P","62.1792590887918","25.9758946486147","2","","0","","179","","","0","",""
"142898","","Hanhimäentie E","62.183344528515335","25.971809735998644","2","","0","","179","","","0","",""
"142899","","Hanhimäentie P","62.1839161916708","25.9713331032673","2","","0","","179","","","0","",""
"142900","","Mäkelänraitti E","62.1877546762541","25.9659888321634","2","","0","","179","","","0","",""
"142901","","Mäkelänraitti P","62.1883463396225","25.9652706860817","2","","0","","179","","","0","",""
"142902","","Siekkiläntie E","62.1923787652175","25.9644269639799","2","","0","","179","","","0","",""
"142903","","Siekkiläntie P","62.1930747953772","25.9647142203289","2","","0","","179","","","0","",""
"142904","","Jokelanvuori E","62.1969690786854","25.9651021826492","2","","0","","179","","","0","",""
"142905","","Jokelanvuori P","62.1975998445303","25.9649849328033","2","","0","","179","","","0","",""
"142906","","Koskelanpolku E","62.2021468498498","25.9664264217171","2","","0","","179","","","0","",""
"142907","","Koskelanpolku P","62.2032616953312","25.9665948536953","2","","0","","179","","","0","",""
"142908","","Orajärvi E","62.2073814431716","25.9670802925757","2","","0","","179","","","0","",""
"142909","","Orajärvi P","62.2080627644465","25.9670792611679","2","","0","","179","","","0","",""
"142911","","Manunsaarentie P","62.2166324341899","25.9689909319145","2","","0","","179","","","0","",""
"142912","","Pitkäjärventie E","62.2195163007076","25.970187652264","2","","0","","179","","","0","",""
"142913","","Pitkäjärventie P","62.2201882213557","25.9704863533253","2","","0","","179","","","0","",""
"142914","","Lepola E","62.2259987365943","25.9703517856393","2","","0","","179","","","0","",""
"142915","","Lepola P","62.2266168558519","25.9708052108275","2","","0","","179","","","0","",""
"142916","","Muurikaisjärvi E","62.2325275020417","25.9733301706348","2","","0","","179","","","0","",""
"142917","","Muurikaisjärvi P","62.2336667493559","25.9723690022779","2","","0","","179","","","0","",""
"142919","","Leppälahti th P","62.2362035594848","25.9698926729369","2","","0","","179","","","0","",""
"142930","","Pekkalanmäki E","62.27388143051803","25.335271067611785","3","","0","","592","","","0","",""
"142932","","Kitkanlahti E","62.27656402286032","25.331557554195253","3","","0","","592","","","0","",""
"142936","","Ylämäentie E","62.33600444884891","25.339998592315244","3","","0","","592","","","0","",""
"142937","","Yläkintaus E","62.36311200278627","25.3175876752671","3","","0","","592","","","0","",""
"142939","","Murrontie E","62.36862315731171","25.32229152313799","3","","0","","592","","","0","",""
"142984","","Tikkamannilantie I","62.3865504600574","25.6878373828051","2","","0","","179","","","0","",""
"142985","","Tikkamannilantie L","62.3865011763423","25.685760618533","2","","0","","179","","","0","",""
"142986","","Elementtitie I","62.387666768058175","25.67453251931822","2","","0","","179","","","0","",""
"142987","","Elementtitie L","62.388053970336216","25.672503063641393","2","","0","","179","","","0","",""
"142988","","Tikansalontie I","62.3886019121716","25.6674515062301","2","","0","","179","","","0","",""
"142989","","Tikansalontie L","62.3886188907192","25.6651753896886","2","","0","","179","","","0","",""
"142990","","Lennostontie I","62.3883397213961","25.6600768335923","2","","0","","179","","","0","",""
"142991","","Lennostontie L","62.3882423972747","25.658314646285","2","","0","","179","","","0","",""
"142992","","Martinkatu I","62.3881241232382","25.652700706354","2","","0","","179","","","0","",""
"142993","","Mestarinkatu L","62.3881976693628","25.6489534736988","2","","0","","179","","","0","",""
"142994","","Mestarinkatu I","62.3882240316043","25.6468682262911","2","","0","","179","","","0","",""
"142995","","Hakakatu, Tikkakoski L","62.388567910019994","25.638921606808623","2","","0","","179","","","0","","3"
"142996","","Hakakatu, Tikkakoski I","62.38850575340334","25.63882236507546","2","","0","","179","","","0","","3"
"142997","","Koulukatu, Tikkakoski I","62.38801936413694","25.627050072844835","2","","0","","179","","","0","","2"
"142998","","Koulukatu  Tikkakoski L","62.387818898373","25.6254974668201","2","","0","","179","","","0","",""
"142999","","Hytölänpolku I","62.3870120103625","25.618581521383","2","","0","","179","","","0","",""
"143000","","Hytölänpolku L","62.3871345909982","25.6169262451206","2","","0","","179","","","0","",""
"143001","","Tikkakoskentie 526 I","62.3877933793912","25.6072551536109","2","","0","","179","","","0","",""
"143002","","Tikkakoskentie 526 L","62.3875584495436","25.6059826929936","2","","0","","179","","","0","",""
"143003","","Tikkakoskentie 577 I","62.3860027395915","25.5985466750042","2","","0","","179","","","0","",""
"143004","","Tikkakoskentie 577 L","62.3857439531669","25.5972742809536","2","","0","","179","","","0","",""
"143005","","Kuikka I","62.3822597176293","25.5882042905996","2","","0","","179","","","0","",""
"143093","","Valkolantie L","62.4289788764895","25.8752118146335","2","","0","","410","","","0","",""
"143094","","Valkolantie I","62.4288423514853","25.8777250340486","2","","0","","410","","","0","",""
"143095","","Lepolantie L","62.4267580898865","25.8933986366474","2","","0","","410","","","0","",""
"143096","","Lepolantie I","62.4262762902234","25.8964845238097","2","","0","","410","","","0","",""
"143097","","Peurunka TH L","62.4252168519559","25.9015330040451","2","","0","","410","","","0","",""
"143098","","Peurunka TH I","62.4243927411485","25.9040375445412","2","","0","","410","","","0","",""
"143099","","Koppelontie L","62.4237507371998","25.9081222549331","2","","0","","410","","","0","",""
"143100","","Koppelontie I","62.4237522402773","25.9103080040668","2","","0","","410","","","0","",""
"143101","","Lievestuore th P","62.25087514479594","26.17647095319051","2","","0","","410","","","0","","3"
"143103","","Paavonkuja E","62.2590870813271","26.1883504941796","2","","0","","410","","","0","",""
"143105","","Männikön th L","62.2645441882972","26.2081937104288","2","","0","","410","","","0","",""
"143106","","Männikön th I","62.265080356739","26.2094216569234","2","","0","","410","","","0","",""
"143107","","Tervamäen koulu L","62.2659427959801","26.2114072708085","2","","0","","410","","","0","",""
"143108","","Tervamäen koulu I","62.266386796714","26.2125192471041","2","","0","","410","","","0","",""
"143109","","Raita-ahontie I","62.2686814831758","26.2163398827157","2","","0","","410","","","0","",""
"143110","","Raita-ahontie L","62.2688707460898","26.2165578217386","2","","0","","410","","","0","",""
"143111","","Raitakuja I","62.2704719271519","26.2188793820154","2","","0","","410","","","0","",""
"143112","","Raitakuja L","62.270682443016","26.2193454533186","2","","0","","410","","","0","",""
"143113","","Kukkakuja E","62.2868971687457","26.2429526875742","2","","0","","410","","","0","",""
"143114","","Henrikintie L","62.28655057076604","26.338452481199624","3","","0","","77","","","0","",""
"143115","","Henrikintie I","62.286768325634974","26.339344701093793","3","","0","","77","","","0","",""
"143145","","Mäntylä I","62.29815806137149","26.45523960896119","3","","0","","77","","","0","",""
"143146","","Nujulanlenkki 95 L","62.293549652871484","26.46614596141373","3","","0","","77","","","0","",""
"143147","","Nujulanlenkki 99 I","62.29338775395007","26.468039164222844","3","","0","","77","","","0","",""
"143148","","Hankasalmen as. saha P","62.29619534383096","26.477839791116807","3","","0","","77","","","0","",""
"143149","","Hankasalmen as. saha E","62.29645870572598","26.477904319744155","3","","0","","77","","","0","",""
"143150","","Suotie E","62.29862089492041","26.479135213935795","3","","0","","77","","","0","",""
"143151","","Suotie P","62.29926466040133","26.479567437875147","3","","0","","77","","","0","",""
"143152","","Aseman koulu E","62.30319492681207","26.484467994046277","3","","0","","77","","","0","",""
"143153","","Aseman koulu P","62.30412202403464","26.486360916633647","3","","0","","77","","","0","",""
"143156","","Sumiaistentie 3","62.5694548010105","25.876128962324444","3","","0","","992","","","0","",""
"143157","","Sumiaistentie 3","62.569196429781385","25.876114724382475","3","","0","","992","","","0","",""
"143158","","Syvälahti th L","62.621021548093324","25.928118889628706","3","","0","","992","","","0","",""
"143160","","Vihijärvi L","62.632115566351374","25.966020732577125","3","","0","","992","","","0","",""
"143161","","Vihijärvi I","62.63240751980925","25.966990088867753","3","","0","","992","","","0","",""
"143164","","Saarikkaantie L","62.64050206401693","26.042835083525905","3","","0","","992","","","0","",""
"143174","","Suojarinne I","62.55939873061669","25.864420504849825","3","","0","","992","","","0","",""
"143176","","Konginkangas th I","62.76832207682182","25.781272049608926","3","","0","","992","","","0","",""
"143177","","Konginkankaantie 74 P","62.77205202321058","25.789050836675347","3","","0","","992","","","0","",""
"143178","","Konginkangas kirkko P","62.778048499072646","25.80419129764538","3","","0","","992","","","0","",""
"143184","","Häkkiläntie L","62.74511268744764","25.772360144719357","3","","0","","992","","","0","",""
"143416","","Patajärventie E","62.1574939744846","25.4767809749009","2","","0","","179","","","0","",""
"143417","","Patajärventie P","62.1580773038859","25.4764612555423","2","","0","","179","","","0","",""
"143418","","Majalanmäki E","62.1633322635388","25.4775730612577","2","","0","","179","","","0","",""
"143419","","Majalanmäki P","62.163992839186","25.4775084685921","2","","0","","179","","","0","",""
"143420","","Rietulantie E","62.1684632778867","25.477039630473","2","","0","","179","","","0","",""
"143421","","Rietulantie P","62.1689841022929","25.4769747773267","2","","0","","179","","","0","",""
"143422","","Sutolantie E","62.1811883677744","25.4731405023044","2","","0","","179","","","0","",""
"143423","","Sutolantie P","62.181438106065","25.4724098928925","2","","0","","179","","","0","",""
"143424","","Saukontie E","62.1838552396012","25.4679476771183","2","","0","","179","","","0","",""
"143425","","Saukontie P","62.1842393659597","25.4680070205799","2","","0","","179","","","0","",""
"143426","","Kuusjärventie E","62.1895717405804","25.4709149825485","2","","0","","179","","","0","",""
"143430","","Myllymäki L","62.1940443159483","25.4887218639763","2","","0","","500","","","0","",""
"143431","","Myllymäki I","62.1941180538615","25.4895871354473","2","","0","","500","","","0","",""
"143432","","Myllyntaus L","62.1940042945043","25.4979639488634","2","","0","","500","","","0","",""
"143433","","Myllyntaus I","62.1938958940086","25.4996846447473","2","","0","","500","","","0","",""
"143434","","Tervakangas L","62.1943604668973","25.5058478714625","2","","0","","500","","","0","",""
"143435","","Tervakangas I","62.1945287854706","25.5068130561497","2","","0","","500","","","0","",""
"143436","","Pitkäkorventie L","62.1958877738993","25.5160325798112","2","","0","","500","","","0","",""
"143437","","Pitkäkorventie I","62.1959612455354","25.5167215258066","2","","0","","500","","","0","",""
"143438","","Saukkolahdentie 793 L","62.1961041519504","25.5266600285142","2","","0","","500","","","0","",""
"143439","","Saukkolahdentie 793 I","62.1961730477134","25.5280812232359","2","","0","","500","","","0","",""
"143440","","Pukkimäentie L","62.1964740371889","25.5343036084672","2","","0","","500","","","0","",""
"143441","","Pukkimäentie I","62.1964969099035","25.5347751193673","2","","0","","500","","","0","",""
"143442","","Isolahti koulu  I","62.196987049725934","25.55234126208858","2","","0","","500","","","0","",""
"143443","","Jaakontie I","62.1932704689139","25.5743605557766","2","","0","","500","","","0","",""
"143444","","Jaakontie L","62.1932039831329","25.5749766222951","2","","0","","500","","","0","",""
"143445","","Ronsu L","62.1927629190278","25.5827128643524","2","","0","","500","","","0","",""
"143446","","Ronsu I","62.1927127939416","25.5830587206769","2","","0","","500","","","0","",""
"143449","","Isoranta L","62.1905561261362","25.5961424170213","1","","0","","179","","","0","",""
"143450","","Isoranta I","62.1907698996464","25.5968694413738","1","","0","","179","","","0","",""
"143451","","Kitukangas L","62.195030217544","25.606176301181","1","","0","","179","","","0","",""
"143452","","Kitukangas I","62.1954293566236","25.6070534377562","1","","0","","179","","","0","",""
"143453","","Kitumäki I","62.1998977228529","25.6173746242954","1","","0","","179","","","0","",""
"143454","","Kitumäki L","62.2001579030818","25.6179066298733","1","","0","","179","","","0","",""
"143455","","Kotanen I","62.2016849179983","25.6211624132934","1","","0","","179","","","0","",""
"143456","","Kotanen L","62.2019725619628","25.6220443406962","1","","0","","179","","","0","",""
"143457","","TV-masto I","62.2031282347025","25.6366475513843","1","","0","","179","","","0","",""
"143458","","TV-masto L","62.203092499803","25.6378511389301","1","","0","","179","","","0","",""
"143459","","Lähteelä L","62.206830240575","25.6509968895808","1","","0","","179","","","0","",""
"143460","","Lähteelä I","62.2071266636569","25.6522443703614","1","","0","","179","","","0","",""
"143463","","Ylämyllyjärvi L","62.2170224814821","25.6846940731458","1","","0","","179","","","0","",""
"143464","","Ylämyllyjärvi P","62.2181699674774","25.6854284553701","1","","0","","179","","","0","",""
"143471","","Pyyppöläntie I","62.1392294199651","25.6669842294047","2","","0","","500","","","0","",""
"143472","","Pyyppöläntie L","62.1390199044552","25.6644148681483","2","","0","","500","","","0","",""
"143473","","Laaksotie I","62.1372542910846","25.6594721515759","2","","0","","500","","","0","",""
"143474","","Laaksotie L","62.1370119337463","25.6579283420969","2","","0","","500","","","0","",""
"143475","","Rantatöyry I","62.1362780527131","25.6510923503387","2","","0","","500","","","0","",""
"143476","","Rantatöyry L","62.1361129692712","25.6493879486344","2","","0","","500","","","0","",""
"143477","","Alhonsaarentie I","62.13337434569781","25.63022238916638","2","","0","","500","","","0","",""
"143478","","Alhonsaarentie L","62.13328741673024","25.629379958486496","2","","0","","500","","","0","",""
"143479","","Huhtiniementie I","62.14468083427996","25.586576508426596","2","","0","","500","","","0","",""
"143480","","Huhtiniementie L","62.14483261849634","25.585386940678173","2","","0","","500","","","0","",""
"143481","","Lietniementie I","62.144852241675","25.5784754215941","2","","0","","500","","","0","",""
"143482","","Lietniementie L","62.1451364934503","25.5772398848925","2","","0","","500","","","0","",""
"143483","","Mehtolanniementie I","62.1459990053168","25.5736181418777","2","","0","","500","","","0","",""
"143484","","Mehtolanniementie L","62.1460515750575","25.5733514537852","2","","0","","500","","","0","",""
"143485","","Hyrtölänlahti E","62.1524226732814","25.5624661279371","2","","0","","500","","","0","",""
"143486","","Hyrtölänlahti P","62.1525374585834","25.5624183600294","2","","0","","500","","","0","",""
"143487","","Hyrtölänniementie E","62.1575738949969","25.5636728832965","2","","0","","500","","","0","",""
"143488","","Hyrtölänniementie P","62.1582403322936","25.564246442921","2","","0","","500","","","0","",""
"143489","","Melleri E","62.1616154333484","25.5678188705424","2","","0","","500","","","0","",""
"143490","","Melleri P","62.1621402311326","25.5685232979278","2","","0","","500","","","0","",""
"143491","","Hokkasentie E","62.1662307495697","25.570966393662694","2","","0","","500","","","0","",""
"143492","","Hokkasentie P","62.16650020689104","25.570960856500285","2","","0","","500","","","0","",""
"143493","","Mellerinsaari th E","62.1694860770896","25.561713991231","2","","0","","500","","","0","",""
"143494","","Mellerinsaari th P","62.1698387134272","25.5605381687744","2","","0","","500","","","0","",""
"143495","","Kalliosaarentie E","62.1707995940541","25.5581343246325","2","","0","","500","","","0","",""
"143496","","Kalliosaarentie P","62.1713352405994","25.5567917903027","2","","0","","500","","","0","",""
"143497","","Polkuluoto E","62.1732281162734","25.5533627642961","2","","0","","500","","","0","",""
"143498","","Polkuluoto P","62.1737651182479","25.5529999456073","2","","0","","500","","","0","",""
"143499","","Polkulanrannantie E","62.1757712629223","25.5538583346042","2","","0","","500","","","0","",""
"143500","","Polkulanrannantie P","62.1761050055769","25.554849331685","2","","0","","500","","","0","",""
"143501","","Uimaranta th P","62.1796197332568","25.5561760372928","2","","0","","500","","","0","",""
"143502","","Uimaranta th E","62.1796796011906","25.5561352374917","2","","0","","500","","","0","",""
"143503","","Isolahti E","62.1822036732046","25.5546147953409","2","","0","","500","","","0","",""
"143504","","Isolahti P","62.182694104174","25.5546365201269","2","","0","","500","","","0","",""
"143505","","Lapinmäentie E","62.1904053254079","25.5567641155612","2","","0","","500","","","0","",""
"143506","","Lapinmäentie P","62.1909755280226","25.5565888025203","2","","0","","500","","","0","",""
"143508","","Saukkolahdentie E","62.1966964730302","25.5515278062816","2","","0","","500","","","0","",""
"143509","","Nokkatie L","62.1030759569515","25.6438861755512","2","","0","","500","","","0","",""
"143510","","Nokkatie I","62.1027722419487","25.6459450242284","2","","0","","500","","","0","",""
"143511","","Yrittäjäntie E","62.1052058894151","25.6514503595688","2","","0","","500","","","0","",""
"143512","","Yrittäjäntie P","62.1057520953812","25.6521097132128","2","","0","","500","","","0","",""
"143513","","Riihivuori th E","62.1115208997578","25.6561088719516","2","","0","","500","","","0","",""
"143514","","Riihivuori th P","62.1129896480081","25.657723355241","2","","0","","500","","","0","",""
"143515","","Saarenkylä E","62.1162637399031","25.6633765628128","2","","0","","500","","","0","",""
"143516","","Saarenkylä P","62.1167095721106","25.6639841169663","2","","0","","500","","","0","",""
"143517","","Kannistontie E","62.1205983617678","25.6652951268902","2","","0","","500","","","0","",""
"143518","","Kannistontie P","62.1211891857641","25.6655574829863","2","","0","","500","","","0","",""
